     3.03           OBSERVATION DATA    M: Mixed            RINEX VERSION / TYPE
Log2rnx                                                     PGM / RUN BY / DATE
Log2rnx                                                     MARKER NAME
RINEX Logger user   Log2rnx                                 OBSERVER / AGENCY
                    NONE                NON-NONE            REC # / TYPE / VERS
                    NONE                                    ANT # / TYPE
        0.0           0.0           0.0                     APPROX POSITION XYZ
        0.0000        0.0000        0.0000                  ANTENNA: DELTA H/E/N
G   12 C1C L1C D1C S1C C2W L2W D2W S2W C5X L5X D5X S5X      SYS / # / OBS TYPES
R    8 C1C L1C D1C S1C C2C L2C D2C S2C                      SYS / # / OBS TYPES
E   12 C1C L1C D1C S1C C5X L5X D5X S5X C7X L7X D7X S7X      SYS / # / OBS TYPES
C   12 C1I L1I D1I S1I C7I L7I D7I S7X C6I L6I D6I S6I      SYS / # / OBS TYPES
  0000    00    00    00    00    0.0000000     GPS         TIME OF FIRST OBS
                                                            END OF HEADER
> 2020 08 07 12 04  4.0000840  0 23
G10  21888607.017    -7562056.6040       2267.201          46.000                                                                    21888604.329    -1529588.8250       1693.031          38.000  
G18  21765734.084     5784687.2400      -3093.932          40.000                                                                                                                                  
G20  19978518.643    -2938296.7780        379.769          38.000                                                                                                                                  
G21  23058893.654    -3907361.1110        851.265          42.000                                                                                                                                  
G24  20684889.636     3431943.0490      -2112.518          40.000                                                                    20684891.137      463835.8740      -1577.587          39.000  
G32                                                                                                                                  23359944.340     -754208.0900       1253.043          43.000  
R06  21056689.594     2925449.2630      -1299.806          37.000                                                                                                                                  
R09  20079851.254    -9144495.0410       2046.556          35.000                                                                                                                                  
R16  21352909.135     3430426.6440      -2748.648          32.000                                                                                                                                  
R07  20653449.858    -2896238.7890        956.596          39.000                                                                                                                                  
C13  36322558.913     3632323.7680      -1491.070          35.000                                                                                                                                  
C16  36656454.259     1592474.4380       -466.505          36.000                                                                                                                                  
C19  23063202.567    -4734847.9080       1553.626          47.000                                                                                                                                  
C20  22440085.742      637006.9270       -480.680          36.000                                                                                                                                  
C29  25798203.463                       -2640.147          30.000                                                                                                                                  
C32  25509388.207                       -2264.524          14.000                                                                                                                                  
C35  26106668.623     2572119.8970      -1422.907          42.000                                                                                                                                  
C36  25922372.406                        3008.093          25.000                                                                                                                                  
C37  23222382.773     2195408.1790      -1529.562          34.000                                                                                                                                  
E03                                                                  24304721.081                        -588.907          24.000                                                                  
E08                                                                  23048248.027     -222419.3570        576.587          33.000                                                                  
E13                                                                  25740170.251      -17954.1490       -177.080          40.000                                                                  
E15                                                                  25153483.303      764534.1180      -1917.629          40.000                                                                  
> 2020 08 07 12 04  5.0000840  0 23
G10  21888173.518    -7564322.8360       2266.232          47.000                                                                    21888172.332    -1531281.1050       1692.280          38.000  
G18  21766318.980     5787780.6170      -3093.377          40.000                                                                                                                                  
G20  19978446.399    -2938676.0630        379.285          38.000                                                                                                                                  
G21  23058730.861    -3908211.1430        850.033          42.000                                                                                                                                  
G24  20685291.969     3434056.1540      -2113.105          41.000                                                                    20685292.562      465413.7950      -1577.921          40.000  
G32  23359622.366                        1678.116          33.000                                                                    23359624.163     -755460.7350       1252.645          44.000  
R06  21056919.536     2926749.3360      -1300.073          34.000                                                                                                                                  
R09  20079460.614    -9146541.9990       2046.958          33.000                                                                                                                                  
R16  21353428.977                       -2749.651          33.000                                                                                                                                  
R07  20653277.781    -2897194.4330        955.643          39.000                                                                                                                                  
C13  36322843.718     3633814.4240      -1490.656          36.000                                                                                                                                  
C16  36656542.696     1592941.3750       -466.936          37.000                                                                                                                                  
C19  23062902.475    -4736400.6240       1552.717          47.000                                                                                                                                  
C20  22440180.479      637487.7830       -480.856          39.000                                                                                                                                  
C29  25798708.612                       -2638.962          30.000                                                                                                                                  
C32  25509821.705                       -2259.114          14.000                                                                                                                                  
C35  26106943.238     2573543.6860      -1423.789          42.000                                                                                                                                  
C36  25921815.692                        3012.469          25.000                                                                                                                                  
C37  23222675.971     2196938.2190      -1530.040          33.000                                                                                                                                  
E03                                                                  24304870.681                        -588.434          26.000                                                                  
E08                                                                  23048102.318     -222995.2660        575.909          32.000                                                                  
E13                                                                  25740213.108      -17776.2160       -177.933          40.000                                                                  
E15                                                                  25153971.962      766451.4910      -1917.374          40.000                                                                  
> 2020 08 07 12 04  6.0000830  0 22
G10  21887443.526    -7567357.6830       2266.032          46.000                                                                    21887441.135    -1533547.4010       1692.181          37.000  
G18  21766611.588     5790105.2100      -3093.405          40.000                                                                                                                                  
G20  19978074.066    -2939823.8540        378.977          38.000                                                                                                                                  
G21  23058270.387    -3909829.4760        849.519          41.000                                                                                                                                  
G24  20685394.194     3435400.7330      -2113.391          41.000                                                                    20685395.398      466417.9230      -1578.242          39.000  
G32  23359003.897                        1677.935          31.000                                                                    23359005.991     -757287.4160       1252.566          44.000  
R06  21056882.404     2927268.7160      -1300.066          34.000                                                                                                                                  
R09  20078782.238    -9149369.9270       2046.692          32.000                                                                                                                                  
R16  21353676.947     3435145.1920      -2750.344          32.000                                                                                                                                  
R07  20652808.041    -2898933.2330        955.642          40.000                                                                                                                                  
C13  36322830.511     3634543.1170      -1490.516          36.000                                                                                                                                  
C16  36656333.139     1592646.2820       -466.731          37.000                                                                                                                                  
C19  23062304.685    -4738715.1180       1552.669          47.000                                                                                                                                  
C20  22439971.829      637206.8570       -480.898          38.000                                                                                                                                  
C29  25798918.767                       -2637.727          30.000                                                                                                                                  
C35  26106915.948     2574206.1270      -1424.265          40.000                                                                                                                                  
C36  25920933.097                        3014.266          26.000                                                                                                                                  
C37  23222675.066     2197706.6580      -1530.262          34.000                                                                                                                                  
E03                                                                  24304718.989                        -588.074          26.000                                                                  
E08                                                                  23047653.535     -224145.3750        575.994          33.000                                                                  
E13                                                                  25739960.990      -18171.9940       -178.336          41.000                                                                  
E15                                                                  25154160.235      767794.7580      -1917.379          40.000                                                                  
> 2020 08 07 12 04  7.0000830  0 23
G10  21887014.233    -7569624.3330       2266.650          47.000                                                                    21887010.324    -1535240.0060       1692.605          37.000  
G18  21767199.765     5793199.2390      -3094.028          41.000                                                                                                                                  
G20  19978004.212    -2940202.6370        378.784          39.000                                                                                                                                  
G21  23058107.594    -3910679.2480        849.771          42.000                                                                                                                                  
G24  20685794.119     3437514.2900      -2113.557          40.000                                                                    20685796.806      467996.2160      -1578.293          38.000  
G32  23358686.408                        1678.921          31.000                                                                    23358686.408     -758540.2850       1252.869          44.000  
R06  21057126.742     2928568.8360      -1300.120          36.000                                                                                                                                  
R09  20078402.993    -9151415.4890       2045.562          35.000                                                                                                                                  
R16  21354179.705     3437895.8130      -2750.621          34.000                                                                                                                                  
R07  20652634.760    -2899889.5050        956.273          41.000                                                                                                                                  
C13  36323120.411     3636033.8680      -1490.751          36.000                                                                                                                                  
C16  36656420.983     1593112.3990       -466.117          36.000                                                                                                                                  
C19  23062007.002    -4740268.5570       1553.439          47.000                                                                                                                                  
C20  22440064.159      637687.6200       -480.764          37.000                                                                                                                                  
C29  25799423.916                       -2636.406          30.000                                                                                                                                  
C32  25510364.637                       -2279.665          15.000                                                                                                                                  
C35  26107189.969                       -1423.128          41.000                                                                                                                                  
C36  25920356.594                        3010.823          27.000                                                                                                                                  
C37  23222968.858     2199237.3280      -1530.670          35.000                                                                                                                                  
E03                                                                  24304876.076    -1134478.7220       -588.205          23.000                                                                  
E08                                                                  23047506.343     -224721.9600        576.585          32.000                                                                  
E13                                                                  25740004.755      -17993.9570       -178.037          40.000                                                                  
E15                                                                  25154649.487      769712.4130      -1917.656          40.000                                                                  
> 2020 08 07 12 04  8.0000830  0 23
G10  21886577.122    -7571892.0980       2267.766          47.000                                                                    21886579.234    -1536933.4830       1693.476          37.000  
G18  21767787.366     5796293.8630      -3094.624          41.000                                                                                                                                  
G20  19977930.450    -2940581.5230        378.885          39.000                                                                                                                                  
G21  23057946.598    -3911529.8420        850.595          41.000                                                                                                                                  
G24  20686197.027     3439627.9960      -2113.706          39.000                                                                    20686198.231      469574.6470      -1578.431          37.000  
G32  23358370.123                        1679.366          30.000                                                                    23358366.825     -759794.1230       1253.838          44.000  
R06  21057372.267     2929869.2670      -1300.432          35.000                                                                                                                                  
R09  20078017.762    -9153459.9440       2044.455          36.000                                                                                                                                  
R16  21354692.043     3440646.5880      -2750.775          33.000                                                                                                                                  
R07  20652453.086    -2900846.9170        957.411          41.000                                                                                                                                  
C13  36323401.622     3637524.5250      -1490.657          35.000                                                                                                                                  
C16  36656512.719     1593577.4790       -465.080          38.000                                                                                                                                  
C19  23061706.597    -4741823.2700       1554.713          46.000                                                                                                                                  
C20  22440157.988      638168.3980       -480.777          38.000                                                                                                                                  
C29  25799931.770     7591728.9790      -2638.472          31.000                                                                                                                                  
C32  25510815.829                       -2283.196          15.000                                                                                                                                  
C35  26107460.080     2577052.9510      -1422.364          41.000                                                                                                                                  
C36  25919779.201                        3009.796          27.000                                                                                                                                  
C37  23223259.666     2200768.2420      -1530.914          34.000                                                                                                                                  
E03                                                                  24305025.677                        -587.348          24.000                                                                  
E08                                                                  23047360.930     -225299.3630        577.403          31.000                                                                  
E13                                                                  25740050.021      -17816.5450       -177.413          40.000                                                                  
E15                                                                  25155138.145      771629.9790      -1917.566          40.000                                                                  
> 2020 08 07 12 04  9.0000830  0 23
G10  21886149.924    -7573354.3530       2268.862          47.000                                                                    21886147.219    -1538025.3960       1694.250          38.000  
G18  21768376.450     5800196.0170      -3095.549          41.000                                                                                                                                  
G20  19977860.004    -2940153.6640        378.748          39.000                                                                                                                                  
G21  23057783.526    -3911574.6350        851.400          41.000                                                                                                                                  
G24  20686599.952     3442548.5480      -2113.946          39.000                                                                    20686601.749      471755.5860      -1578.603          38.000  
G32  23358047.556                        1681.468          30.000                                                                    23358046.648     -760446.3090       1254.522          44.000  
R06  21057628.349     2931988.9710      -1300.641          36.000                                                                                                                                  
R09  20077647.870    -9154683.2760       2042.972          36.000                                                                                                                                  
R16  21355221.832     3444217.6960      -2751.182          33.000                                                                                                                                  
R07  20652286.454    -2900983.7410        958.480          40.000                                                                                                                                  
C13  36323691.225     3639814.7160      -1490.918          35.000                                                                                                                                  
C16  36656601.157     1594841.0030       -464.250          38.000                                                                                                                                  
C19  23061408.006    -4742579.8950       1555.900          46.000                                                                                                                                  
C20  22440243.739      639448.0410       -480.369          36.000                                                                                                                                  
C29  25800438.716     7595166.7300      -2638.479          31.000                                                                                                                                  
C32  25511263.113                       -2277.684          17.000                                                                                                                                  
C35  26107735.881     2579274.5170      -1422.293          42.000                                                                                                                                  
C36  25919198.807                        3009.682          29.000                                                                                                                                  
C37  23223557.349     2203098.8220      -1531.307          35.000                                                                                                                                  
E03                                                                  24305177.668                        -587.825          24.000                                                                  
E08                                                                  23047213.144     -225275.4760        578.449          31.000                                                                  
E13                                                                  25740095.287      -17037.3010       -176.908          40.000                                                                  
E15                                                                  25155627.711      774150.1300      -1917.816          40.000                                                                  
> 2020 08 07 12 04 10.0000830  0 23
G10  21885718.223    -7575624.3370       2269.984          47.000                                                                    21885715.832    -1539720.5570       1695.161          38.000  
G18  21768965.849     5803292.4730      -3096.456          41.000                                                                                                                                  
G20  19977788.353    -2940532.3850        378.721          40.000                                                                                                                                  
G21  23057621.937    -3912426.8350        852.200          40.000                                                                                                                                  
G24  20687001.673     3444662.6550      -2114.108          40.000                                                                    20687004.971      473334.2620      -1578.676          38.000  
G32  23357726.175                        1680.145          32.000                                                                    23357727.379     -761701.6120       1255.303          44.000  
R06  21057867.870     2933289.9410      -1300.970          35.000                                                                                                                                  
R09  20077268.031    -9156724.7170       2041.441          35.000                                                                                                                                  
R16  21355738.969     3446968.9760      -2751.281          33.000                                                                                                                                  
R07  20652106.281    -2901943.2540        959.514          40.000                                                                                                                                  
C13  36323974.530     3641305.9620      -1491.245          35.000                                                                                                                                  
C16  36656691.689     1595304.1700       -463.168          38.000                                                                                                                                  
C19  23061110.009    -4744137.1800       1557.284          46.000                                                                                                                                  
C20  22440338.773      639928.9000       -480.859          37.000                                                                                                                                  
C29  25800943.865                       -2637.519          30.000                                                                                                                                  
C32  25511672.932                       -2286.160          24.000                                                                                                                                  
C35  26108008.401     2580695.8430      -1421.326          42.000                                                                                                                                  
C36  25918622.008                        3007.975          27.000                                                                                                                                  
C37  23223850.862     2204630.5730      -1531.751          36.000                                                                                                                                  
E03                                                                  24305327.565    -1132114.1240       -586.878          22.000                                                                  
E08                                                                  23047066.231     -225854.8470        579.371          31.000                                                                  
E13                                                                  25740139.959      -16861.0490       -176.252          40.000                                                                  
E15                                                                  25156114.868      776068.2140      -1918.084          39.000                                                                  
> 2020 08 07 12 04 11.0000830  0 23
G10  21885284.131    -7577894.9010       2270.564          46.000                                                                    21885283.224    -1541416.0650       1695.508          38.000  
G18  21769554.951     5806389.3770      -3096.904          41.000                                                                                                                                  
G20  19977713.701    -2940910.8510        378.467          39.000                                                                                                                                  
G21  23057460.348    -3913279.3520        852.517          41.000                                                                                                                                  
G24  20687406.100     3446777.1230      -2114.468          40.000                                                                    20687405.803      474913.2770      -1579.016          38.000  
G32  23357405.998                        1685.332          33.000                                                                    23357407.499     -762957.4520       1255.840          44.000  
R06  21058114.006     2934591.2220      -1301.281          35.000                                                                                                                                  
R09  20076876.500    -9158765.2210       2040.504          35.000                                                                                                                                  
R16  21356259.998     3449720.9560      -2751.980          33.000                                                                                                                                  
R07  20651921.012    -2902903.3430        960.088          40.000                                                                                                                                  
C13  36324262.633     3642797.1430      -1491.182          35.000                                                                                                                                  
C16  36656779.533     1595766.8510       -462.680          39.000                                                                                                                                  
C19  23060811.418    -4745695.1370       1557.958          46.000                                                                                                                                  
C20  22440434.103      640409.8010       -480.902          39.000                                                                                                                                  
C29  25801451.422                       -2637.593          29.000                                                                                                                                  
C32  25512146.897                       -2282.390          24.000                                                                                                                                  
C35  26108280.607     2582116.9620      -1421.118          43.000                                                                                                                                  
C36  25918042.207                        3009.180          27.000                                                                                                                                  
C37  23224141.059     2206162.8820      -1532.308          35.000                                                                                                                                  
E03                                                                  24305478.056                        -585.514          19.000                                                                  
E08                                                                  23046919.335     -226434.8730        580.026          32.000                                                                  
E13                                                                  25740185.836      -16685.0240       -176.025          40.000                                                                  
E15                                                                  25156603.544      777986.2610      -1918.047          39.000                                                                  
> 2020 08 07 12 04 12.0000820  0 24
G10  21884552.027    -7580934.3270       2270.611          46.000                                                                    21884552.027    -1543685.7630       1695.584          38.000  
G15  23321761.576                       -2695.273          29.000                                                                                                                                  
G18  21769846.337     5808717.4560      -3096.891          41.000                                                                                                                                  
G20  19977342.258    -2942057.8070        378.142          40.000                                                                                                                                  
G21  23056997.169    -3914900.5250        852.359          41.000                                                                                                                                  
G24  20687504.137     3448123.3280      -2115.017          40.000                                                                    20687508.622      475918.5130      -1579.349          38.000  
G32  23356789.624                        1683.645          33.000                                                                    23356787.827     -764787.6230       1256.057          44.000  
R06  21058075.984     2935112.3170      -1301.781          35.000                                                                                                                                  
R09  20076212.801    -9161586.4140       2039.957          35.000                                                                                                                                  
R16  21356478.599     3451692.2290      -2752.782          33.000                                                                                                                                  
R07  20651456.070    -2904646.5920        960.091          39.000                                                                                                                                  
C13  36324246.145     3643526.2890      -1490.969          35.000                                                                                                                                  
C16  36656568.475     1595467.4040       -462.378          39.000                                                                                                                                  
C19  23060210.348    -4748015.0810       1558.119          46.000                                                                                                                                  
C20  22440226.640      640129.1830       -481.205          38.000                                                                                                                                  
C29  25801660.077     7602320.9880      -2637.871          31.000                                                                                                                                  
C32  25512282.714                       -2285.466          24.000                                                                                                                                  
C35  26108253.928     2582775.9910      -1420.853          42.000                                                                                                                                  
C36  25917166.801                        3008.096          27.000                                                                                                                                  
C37  23224139.561     2206933.8220      -1532.764          36.000                                                                                                                                  
E03                                                                  24305325.770                        -582.632          21.000                                                                  
E08                                                                  23046470.256     -227589.1510        580.164          32.000                                                                  
E13                                                                  25739930.105      -17083.1180       -176.020          40.000                                                                  
E15                                                                  25156793.004      779330.1250      -1917.977          39.000                                                                  
> 2020 08 07 12 04 13.0000820  0 22
G10  21884119.733    -7583205.0800       2270.753          47.000                                                                    21884119.436    -1545381.4350       1695.672          38.000  
G15  23322268.819                       -2694.209          28.000                                                                                                                                  
G18  21770433.641     5811814.4170      -3096.961          41.000                                                                                                                                  
G20  19977270.014    -2942435.8940        378.087          39.000                                                                                                                                  
G21  23056838.268    -3915752.7860        852.261          41.000                                                                                                                                  
G24  20687909.454     3450238.4150      -2115.087          40.000                                                                    20687910.344      477498.0730      -1579.560          37.000  
G32  23356465.242                        1680.145          35.000                                                                    23356466.743     -766043.8920       1256.268          44.000  
R06  21058311.021     2936413.9470      -1301.630          35.000                                                                                                                                  
R09  20075822.178    -9163626.0230       2039.608          34.000                                                                                                                                  
R16  21356994.253     3454445.3660      -2753.137          33.000                                                                                                                                  
R07  20651275.897    -2905606.9260        960.334          39.000                                                                                                                                  
C13  36324533.340     3645017.0400      -1490.752          35.000                                                                                                                                  
C16  36656658.710     1595929.3020       -461.897          39.000                                                                                                                                  
C19  23059912.647    -4749573.5080       1558.427          46.000                                                                                                                                  
C20  22440319.580      640610.2100       -481.027          38.000                                                                                                                                  
C29  25802169.117                       -2638.109          30.000                                                                                                                                  
C32  25512724.606                       -2287.406          25.000                                                                                                                                  
C35  26108526.134                       -1419.965          39.000                                                                                                                                  
C37  23224429.147     2208466.8710      -1533.048          35.000                                                                                                                                  
E08                                                                  23046320.952     -228169.6460        580.494          30.000                                                                  
E13                                                                  25739976.279      -16906.9700       -176.147          40.000                                                                  
E15                                                                  25157281.366      781247.9070      -1917.782          38.000                                                                  
> 2020 08 07 12 04 14.0000820  0 23
G10  21883690.126    -7585475.7830       2270.703          46.000                                                                    21883687.421    -1547077.1180       1695.683          37.000  
G15  23322781.175     5578819.8910      -2692.649          29.000                                                                                                                                  
G18  21771023.023     5814911.9970      -3097.580          41.000                                                                                                                                  
G20  19977200.458    -2942813.4320        377.538          39.000                                                                                                                                  
G21  23056675.195    -3916604.6060        851.820          41.000                                                                                                                                  
G24  20688310.268     3452354.2120      -2115.797          39.000                                                                    20688312.972      479077.9950      -1579.922          37.000  
G32  23356143.564                        1682.489          35.000                                                                    23356147.159                        1256.666          43.000  
R06  21058560.140     2937715.9530      -1302.006          35.000                                                                                                                                  
R09  20075456.735    -9165664.5850       2038.563          35.000                                                                                                                                  
R16  21357502.682     3457199.2300      -2753.864          33.000                                                                                                                                  
R07  20651093.926    -2906567.2680        960.342          40.000                                                                                                                                  
C13  36324822.647     3646508.1790      -1491.139          35.000                                                                                                                                  
C16  36656746.258     1596391.1540       -461.852          39.000                                                                                                                                  
C19  23059611.962    -4751132.1010       1558.593          46.000                                                                                                                                  
C20  22440410.722      641091.6670       -481.458          37.000                                                                                                                                  
C29  25802672.765                       -2636.913          31.000                                                                                                                                  
C32  25513162.903     6127104.2070      -2286.719          30.000                                                                                                                                  
C35  26108800.748                       -1421.633          39.000                                                                                                                                  
C37  23224726.551     2210000.4960      -1533.625          36.000                                                                                                                                  
E03                                                                  24305622.860    -1130342.0870       -586.978          23.000                                                                  
E08                                                                  23046175.260     -228750.2250        580.579          31.000                                                                  
E13                                                                  25740020.044      -16730.5790       -176.392          41.000                                                                  
E15                                                                  25157771.821      783166.0570      -1918.150          39.000                                                                  
> 2020 08 07 12 04 15.0000820  0 22
G10  21883255.127    -7586940.4780       2271.394          46.000                                                                    21883254.830    -1548170.8720       1696.159          37.000  
G15  23323293.809     5582319.1020      -2692.514          32.000                                                                                                                                  
G18  21771614.218     5818816.4850      -3097.791          41.000                                                                                                                                  
G20  19977126.713    -2942384.2030        377.469          39.000                                                                                                                                  
G21  23056509.994    -3916650.2670        852.359          41.000                                                                                                                                  
G24  20688715.287     3455276.5310      -2115.622          41.000                                                                    20688715.898      481260.2910      -1579.893          37.000  
G32                                                                                                                                  23355826.983     -767953.5790       1256.691          45.000  
R06  21058810.533     2939837.2250      -1302.116          34.000                                                                                                                                  
R09  20075067.962    -9166882.9000       2038.048          35.000                                                                                                                                  
R16  21358028.597     3460773.2840      -2754.035          35.000                                                                                                                                  
R07  20650926.107    -2906706.6320        961.113          40.000                                                                                                                                  
C13  36325105.341     3648798.3760      -1490.833          35.000                                                                                                                                  
C16  36656834.992     1597651.5520       -461.034          39.000                                                                                                                                  
C19  23059313.668    -4751892.0670       1559.331          46.000                                                                                                                                  
C20  22440504.849      642372.1630       -481.131          38.000                                                                                                                                  
C29  25803178.228                       -2634.840          31.000                                                                                                                                  
C32  25513600.886     6130190.2300      -2286.660          31.000                                                                                                                                  
C35  26109072.657     2587839.1860      -1420.733          40.000                                                                                                                                  
C37  23225017.341     2212333.5390      -1533.679          36.000                                                                                                                                  
E08                                                                  23046027.753     -228729.0340        581.213          31.000                                                                  
E13                                                                  25740064.420      -15952.0520       -176.122          40.000                                                                  
E15                                                                  25158258.700      785686.5020      -1918.041          38.000                                                                  
> 2020 08 07 12 04 16.0000820  0 24
G10  21882824.333    -7589213.0470       2272.569          46.000                                                                    21882822.536    -1549867.9080       1697.037          37.000  
G15  23323802.867     5585010.7200      -2691.618          31.000                                                                                                                                  
G18  21772203.617     5821914.1400      -3097.656          41.000                                                                                                                                  
G20  19977055.970    -2942762.2090        378.006          39.000                                                                                                                                  
G21  23056349.609    -3917503.2440        852.977          41.000                                                                                                                                  
G24  20689117.305     3457391.7950      -2115.264          41.000                                                                    20689118.213      482839.8060      -1579.515          37.000  
G32                                                                                                                                  23355506.806     -769211.1740       1257.595          44.000  
R06  21059057.262     2941138.5150      -1301.290          34.000                                                                                                                                  
R09  20074709.412    -9168920.7310       2037.831          35.000                                                                                                                                  
R16  21358544.233     3463526.9130      -2753.629          35.000                                                                                                                                  
R07  20650751.623    -2907668.9940        962.363          40.000                                                                                                                                  
C13  36325393.444     3650288.7180      -1490.342          35.000                                                                                                                                  
C16  36656921.929     1598111.4190       -459.868          38.000                                                                                                                                  
C19  23059012.966    -4753452.6800       1560.613          46.000                                                                                                                                  
C20  22440597.195      642852.5750       -480.412          39.000                                                                                                                                  
C29  25803685.471                       -2634.750          30.000                                                                                                                                  
C32  25514040.981     6132476.9960      -2286.766          34.000                                                                                                                                  
C35  26109346.067     2589259.1540      -1419.968          40.000                                                                                                                                  
C36  25914852.711                        3010.267          27.000                                                                                                                                  
C37  23225317.136     2213866.7740      -1533.234          37.000                                                                                                                                  
E03                                                                  24305924.156                        -586.720          23.000                                                                  
E08                                                                  23045879.967     -229311.1440        582.111          32.000                                                                  
E13                                                                  25740109.982                        -172.414          40.000                                                                  
E15                                                                  25158747.655      787604.2000      -1917.698          38.000                                                                  
> 2020 08 07 12 04 17.0000820  0 23
G10  21882391.132    -7591486.2720       2273.224          46.000                                                                    21882391.132    -1551565.4360       1697.527          37.000  
G15  23324314.298     5587702.0330      -2691.313          32.000                                                                                                                                  
G18  21772791.497     5825012.5160      -3098.376          41.000                                                                                                                                  
G20  19976983.115    -2943140.1200        377.911          39.000                                                                                                                                  
G21  23056187.427    -3918356.5140        853.271          41.000                                                                                                                                  
G24  20689520.841     3459507.1000      -2115.305          41.000                                                                    20689520.527      484419.4000      -1579.594          37.000  
G32  23355188.427                        1689.856          35.000                                                                    23355186.036     -770469.2480       1258.073          44.000  
R06  21059292.299     2942439.7940      -1301.279          35.000                                                                                                                                  
R09  20074319.679    -9170957.4790       2036.748          35.000                                                                                                                                  
R16  21359065.576     3466280.7280      -2753.815          35.000                                                                                                                                  
R07  20650564.260    -2908632.1440        963.149          40.000                                                                                                                                  
C13  36325683.344     3651779.2920      -1490.573          35.000                                                                                                                                  
C16  36657011.274     1598570.6290       -459.210          39.000                                                                                                                                  
C19  23058712.875    -4755014.1480       1561.468          46.000                                                                                                                                  
C20  22440688.634      643332.8870       -480.311          39.000                                                                                                                                  
C29  25804191.213     7616307.4230      -2636.985          30.000                                                                                                                                  
C32  25514478.981     6134764.2890      -2287.293          34.000                                                                                                                                  
C35  26109618.570     2590678.6670      -1419.513          41.000                                                                                                                                  
C36  25914277.709                        3004.404          29.000                                                                                                                                  
C37  23225610.631     2215400.2060      -1533.432          36.000                                                                                                                                  
E08                                                                  23045729.162     -229893.9240        582.780          31.000                                                                  
E13                                                                  25740154.951      -15601.2040       -175.392          41.000                                                                  
E15                                                                  25159236.313      789522.1980      -1917.999          38.000                                                                  
> 2020 08 07 12 04 18.0000810  0 24
G10  21881659.638    -7594529.0610       2273.975          47.000                                                                    21881657.527    -1553837.6480       1698.098          38.000  
G15  23324526.565                       -2693.445          31.000                                                                                                                                  
G18  21773083.198     5827342.8900      -3099.185          41.000                                                                                                                                  
G20  19976611.969    -2944286.5490        377.615          39.000                                                                                                                                  
G21  23055728.750    -3919979.0800        853.752          41.000                                                                                                                                  
G24  20689622.771     3460853.8910      -2115.603          39.000                                                                    20689625.458                       -1579.217          37.000  
G32  23354565.753                        1683.866          36.000                                                                    23354565.160     -772301.8770       1258.515          44.000  
R06  21059254.574                       -1298.074          35.000                                                                                                                                  
R09  20073646.400    -9173774.2660       2035.551          35.000                                                                                                                                  
R16  21359289.273                       -2753.112          33.000                                                                                                                                  
R07  20650099.022    -2910379.1440        963.843          40.000                                                                                                                                  
C13  36325667.153     3652508.3050      -1490.837          35.000                                                                                                                                  
C16  36656799.012     1598267.3060       -458.501          39.000                                                                                                                                  
C19  23058114.491    -4757338.3590       1562.386          46.000                                                                                                                                  
C20  22440477.873                        -482.957          37.000                                                                                                                                  
C29  25804397.774     7618182.2340      -2636.634          32.000                                                                                                                                  
C32  25514618.987     6136290.6090      -2288.143          35.000                                                                                                                                  
C35  26109590.390     2591335.9520      -1419.108          41.000                                                                                                                                  
C36  25913399.912                        3004.733          28.000                                                                                                                                  
C37  23225604.038                       -1533.759          35.000                                                                                                                                  
E03                                                                  24305918.748                        -586.419          22.000                                                                  
E08                                                                  23045280.677     -231051.4820        583.444          31.000                                                                  
E13                                                                  25739899.832      -16000.3460       -174.971          41.000                                                                  
E15                                                                  25159425.790      790866.2350      -1918.149          39.000                                                                  
> 2020 08 07 12 04 19.0000810  0 23
G10  21881226.733    -7596803.5700       2274.510          46.000                                                                    21881224.639    -1555536.1620       1698.513          38.000  
G15  23325039.811     5592316.3260      -2691.304          32.000                                                                                                                                  
G18  21773673.189     5830442.8870      -3099.998          41.000                                                                                                                                  
G20  19976538.817    -2944663.8300        377.281          39.000                                                                                                                                  
G21  23055559.361    -3920833.0840        854.005          40.000                                                                                                                                  
G24  20690026.289     3462969.8640      -2115.973          40.000                                                                    20690026.289      487005.2760      -1580.196          37.000  
G32  23354241.685                        1684.600          36.000                                                                    23354244.390     -773560.8340       1258.956          44.000  
R06  21059492.909                       -1300.729          35.000                                                                                                                                  
R09  20073267.154    -9175808.5100       2034.244          35.000                                                                                                                                  
R16  21359811.209     3471006.4890      -2754.632          33.000                                                                                                                                  
R07  20649916.457    -2911343.5840        964.440          40.000                                                                                                                                  
C13  36325950.457     3653999.5370      -1491.233          35.000                                                                                                                                  
C16  36656886.856     1598725.2570       -457.951          38.000                                                                                                                                  
C19  23057814.697    -4758901.3960       1563.037          46.000                                                                                                                                  
C20  22440574.111      643532.6040       -480.430          38.000                                                                                                                                  
C29  25804904.720                       -2637.216          31.000                                                                                                                                  
C32  25515061.786     6138579.6050      -2288.996          35.000                                                                                                                                  
C35  26109863.504     2592754.8120      -1418.860          39.000                                                                                                                                  
C36  25912822.519    -4425751.5520       3007.331          29.000                                                                                                                                  
C37  23225899.941     2217707.0210      -1534.223          35.000                                                                                                                                  
E08                                                                  23045132.577     -231635.3940        583.912          31.000                                                                  
E13                                                                  25739943.597      -15825.5330       -174.814          40.000                                                                  
E15                                                                  25159914.449      792784.7750      -1918.540          39.000                                                                  
> 2020 08 07 12 04 20.0000810  0 23
G10  21880792.938    -7599078.7960       2275.226          46.000                                                                    21880791.141    -1557235.1930       1699.031          37.000  
G15  23325547.944     5595008.0760      -2691.750          30.000                                                                                                                                  
G18  21774263.478     5833543.6000      -3100.712          41.000                                                                                                                                  
G20  19976467.778    -2945040.8950        377.065          39.000                                                                                                                                  
G21  23055399.569    -3921687.3870        854.302          40.000                                                                                                                                  
G24  20690425.603     3465086.1090      -2116.245          40.000                                                                    20690429.808      488585.5810      -1580.305          38.000  
G32  23353920.915                        1687.839          34.000                                                                    23353923.602     -774820.3160       1259.482          44.000  
R06  21059744.140     2945564.2780      -1302.111          35.000                                                                                                                                  
R09  20072887.019    -9177841.5270       2033.017          35.000                                                                                                                                  
R16  21360320.249     3473761.3770      -2754.888          34.000                                                                                                                                  
R07  20649735.080    -2912308.7820        965.198          40.000                                                                                                                                  
C13  36326240.358     3655490.9080      -1491.370          36.000                                                                                                                                  
C16  36656975.887     1599182.6490       -457.393          39.000                                                                                                                                  
C19  23057511.900    -4760465.3240       1563.928          46.000                                                                                                                                  
C20  22440663.439      644013.2470       -480.642          38.000                                                                                                                                  
C29  25805411.073                       -2638.408          29.000                                                                                                                                  
C32  25515499.472     6140869.2350      -2289.630          34.000                                                                                                                                  
C35  26110135.413     2594173.1880      -1418.376          36.000                                                                                                                                  
C36  25912243.015                        3006.995          29.000                                                                                                                                  
C37  23226196.734     2219241.7310      -1534.709          36.000                                                                                                                                  
E08                                                                  23044982.679     -232220.0640        584.670          31.000                                                                  
E13                                                                  25739989.770      -15651.0160       -174.517          41.000                                                                  
E15                                                                  25160404.608      794703.4890      -1918.714          39.000                                                                  
> 2020 08 07 12 04 21.0000810  0 23
G10  21880358.236    -7600547.3840       2275.196          46.000                                                                    21880358.829    -1558331.8680       1699.012          37.000  
G15  23326065.098     5598507.3070      -2692.626          30.000                                                                                                                                  
G18  21774853.469     5837452.2260      -3102.021          41.000                                                                                                                                  
G20  19976396.424    -2944610.4470        376.159          39.000                                                                                                                                  
G21  23055237.684    -3921734.8580        854.078          41.000                                                                                                                                  
G24  20690830.622     3468009.9620      -2117.248          40.000                                                                    20690832.123      490769.0030      -1581.087          38.000  
G32  23353601.035                        1685.059          35.000                                                                    23353602.222     -775477.4720       1259.493          45.000  
R06  21059926.634     2947686.4530      -1303.112          34.000                                                                                                                                  
R09  20072446.558    -9179053.1250       2031.239          34.000                                                                                                                                  
R16  21360780.656     3477337.4240      -2756.122          35.000                                                                                                                                  
R07  20649494.564    -2912452.2580        965.132          39.000                                                                                                                                  
C13  36326524.255     3657782.4130      -1492.232          35.000                                                                                                                                  
C16  36657061.341     1600439.3070       -457.384          39.000                                                                                                                                  
C19  23057213.013    -4761230.1050       1564.055          46.000                                                                                                                                  
C20  22440754.878      645293.4220       -480.902          38.000                                                                                                                                  
C29  25805916.832     7626892.6290      -2636.986          29.000                                                                                                                                  
C32  25515936.269     6143959.7040      -2291.197          32.000                                                                                                                                  
C35  26110408.823     2596391.0630      -1418.602          37.000                                                                                                                                  
C36  25911668.624    -4430964.7660       3005.809          29.000                                                                                                                                  
C37  23226491.730     2221576.4260      -1535.422          35.000                                                                                                                                  
E08                                                                  23044833.393     -232202.4480        584.721          31.000                                                                  
E13                                                                  25740032.331      -14873.9960       -174.684          40.000                                                                  
E15                                                                  25160892.673      797225.1950      -1919.371          39.000                                                                  
> 2020 08 07 12 04 22.0000810  0 23
G10  21879927.739    -7602823.6080       2276.224          46.000                                                                    21879925.331    -1560031.6720       1699.804          38.000  
G15  23326576.843     5601199.7450      -2692.438          31.000                                                                                                                                  
G18  21775442.571     5840554.3960      -3102.170          41.000                                                                                                                                  
G20  19976327.460    -2944986.7820        376.335          38.000                                                                                                                                  
G21  23055076.688    -3922589.7800        854.922          40.000                                                                                                                                  
G24  20691233.548     3470127.3650      -2117.402          40.000                                                                    20691235.642      492350.1330      -1581.130          38.000  
G32  23353281.749     -936864.7140       1687.878          37.000                                                                    23353281.749     -776737.8480       1260.376          44.000  
R06  21060176.957     2948989.6330      -1303.180          35.000                                                                                                                                  
R09  20072054.731    -9181083.6120       2030.486          34.000                                                                                                                                  
R16  21361291.197     3480093.6770      -2756.252          34.000                                                                                                                                  
R07  20649314.093    -2913418.4140        966.156          39.000                                                                                                                                  
C13  36326812.969     3659274.2900      -1491.877          36.000                                                                                                                                  
C16  36657148.575     1600895.6790       -456.373          38.000                                                                                                                                  
C19  23056911.718    -4762795.3400       1565.235          46.000                                                                                                                                  
C20  22440850.819      645774.7920       -481.370          38.000                                                                                                                                  
C29  25806422.278                       -2637.066          26.000                                                                                                                                  
C32  25516378.178     6146251.5030      -2291.799          32.000                                                                                                                                  
C35  26110680.749     2597808.5500      -1417.487          37.000                                                                                                                                  
C36  25911089.416    -4433970.4540       3005.688          30.000                                                                                                                                  
C37  23226780.426     2223112.4580      -1536.033          34.000                                                                                                                                  
E08                                                                  23044686.793     -232788.1470        585.699          31.000                                                                  
E13                                                                  25740078.801      -14699.9820       -174.014          41.000                                                                  
E15                                                                  25161381.628      799144.2040      -1919.009          38.000                                                                  
> 2020 08 07 12 04 23.0000800  0 23
G10  21879192.633    -7605869.5020       2277.079          46.000                                                                    21879192.633    -1562306.1880       1700.401          38.000  
G15  23326785.201                       -2691.875          30.000                                                                                                                                  
G18  21775732.160     5842888.0280      -3102.444          41.000                                                                                                                                  
G20  19975952.423    -2946131.8030        376.207          39.000                                                                                                                                  
G21  23054611.712    -3924214.1400        855.546          40.000                                                                                                                                  
G24  20691336.681     3471476.1520      -2117.600          40.000                                                                    20691338.775      493357.3540      -1581.334          38.000  
G32  23352659.685     -939322.4190       1688.890          37.000                                                                    23352660.279     -778573.1990       1261.237          44.000  
R06  21060122.742     2949512.4850      -1303.538          33.000                                                                                                                                  
R09  20071394.922    -9183894.3490       2029.501          34.000                                                                                                                                  
R16  21361521.786     3482068.9580      -2756.790          35.000                                                                                                                                  
R07  20648844.371    -2915168.4070        966.835          39.000                                                                                                                                  
C13  36326798.278     3660004.1250      -1491.659          36.000                                                                                                                                  
C16  36656939.314     1600589.3860       -455.531          38.000                                                                                                                                  
C19  23056312.131    -4765123.4140       1566.249          45.000                                                                                                                                  
C20  22440640.651      645494.3210       -481.353          38.000                                                                                                                                  
C29  25806626.431                       -2634.698          24.000                                                                                                                                  
C32  25516520.574     6147782.1230      -2292.443          34.000                                                                                                                                  
C35  26110653.163     2598463.2220      -1416.496          37.000                                                                                                                                  
C36  25910212.231    -4437738.1110       3005.831          30.000                                                                                                                                  
C37  23226776.520     2223887.1800      -1536.545          33.000                                                                                                                                  
E08                                                                  23044235.306     -233948.7720        586.511          30.000                                                                  
E13                                                                  25739821.884      -15100.5240       -173.572          41.000                                                                  
E15                                                                  25161570.791      800488.9640      -1918.873          38.000                                                                  
> 2020 08 07 12 04 24.0000800  0 22
G10  21878761.246    -7608146.6910       2277.190          45.000                                                                    21878759.746    -1564006.6930       1700.505          38.000  
G15  23327297.243                       -2695.108          30.000                                                                                                                                  
G18  21776323.653     5845991.2540      -3103.226          40.000                                                                                                                                  
G20  19975881.383    -2946507.3500        375.547          38.000                                                                                                                                  
G21  23054448.029    -3925069.6200        855.481          40.000                                                                                                                                  
G24  20691741.404     3473594.5770      -2118.426          40.000                                                                    20691741.404      494939.3410      -1581.987          39.000  
G32  23352339.195     -941011.7100       1689.291          38.000                                                                    23352338.305     -779834.6250       1261.425          44.000  
R06  21060366.766     2950816.8720      -1304.387          36.000                                                                                                                                  
R09  20070999.797    -9185922.3970       2028.048          35.000                                                                                                                                  
R16  21362027.249     3484826.8790      -2757.921          34.000                                                                                                                                  
R07  20648664.790    -2916135.2930        966.886          39.000                                                                                                                                  
C13  36327084.881     3661496.1880      -1492.063          35.000                                                                                                                                  
C16  36657025.361     1601044.8930       -455.508          38.000                                                                                                                                  
C19  23056010.852    -4766689.8900       1566.477          46.000                                                                                                                                  
C20  22440735.091      645976.2750       -481.954          38.000                                                                                                                                  
C32  25516957.667                       -2293.854          32.000                                                                                                                                  
C35  26110922.978     2599880.1540      -1416.932          35.000                                                                                                                                  
C36  25909634.227    -4440743.4340       3005.323          30.000                                                                                                                                  
C37  23227070.329     2225424.7960      -1537.616          32.000                                                                                                                                  
E08                                                                  23044086.299     -234535.4960        586.724          31.000                                                                  
E13                                                                  25739865.946      -14926.9970       -173.527          41.000                                                                  
E15                                                                  25162060.060      802408.1510      -1919.187          38.000                                                                  
> 2020 08 07 12 04 25.0000800  0 23
G10  21878325.933    -7610424.3590       2277.668          46.000                                                                    21878325.340    -1565707.5140       1700.821          38.000  
G15  23327814.084                       -2693.029          34.000                                                                                                                                  
G18  21776913.051     5849094.9100      -3103.656          41.000                                                                                                                                  
G20  19975811.826    -2946882.5730        375.223          39.000                                                                                                                                  
G21  23054284.642    -3925925.4210        855.800          39.000                                                                                                                                  
G24  20692141.921     3475713.4680      -2118.891          39.000                                                                    20692144.312      496521.6220      -1582.282          38.000  
G32  23352019.018     -942702.0710       1690.361          38.000                                                                    23352016.924     -781096.5500       1261.926          45.000  
R06  21060614.105     2952121.5280      -1304.657          36.000                                                                                                                                  
R09  20070627.165    -9187949.4520       2027.054          33.000                                                                                                                                  
R16  21362553.373     3487585.2050      -2758.326          34.000                                                                                                                                  
R07  20648489.102    -2917102.6380        967.345          40.000                                                                                                                                  
C13  36327373.577     3662988.3940      -1492.206          36.000                                                                                                                                  
C16  36657113.205     1601499.8220       -454.928          38.000                                                                                                                                  
C19  23055708.964    -4768257.0340       1567.144          45.000                                                                                                                                  
C20  22440825.937      646458.4670       -482.192          37.000                                                                                                                                  
C29  25807640.637                       -2638.201          23.000                                                                                                                                  
C32  25517398.669     6152370.6140      -2294.428          32.000                                                                                                                                  
C35  26111198.186                       -1418.147          34.000                                                                                                                                  
C36  25909056.817    -4443748.7100       3005.276          29.000                                                                                                                                  
C37  23227370.124     2226962.7770      -1537.981          35.000                                                                                                                                  
E08                                                                  23043935.215     -235122.6840        587.188          30.000                                                                  
E13                                                                  25739910.321      -14753.6680       -173.329          41.000                                                                  
E15                                                                  25162548.125      804327.3260      -1919.174          38.000                                                                  
> 2020 08 07 12 04 26.0000800  0 23
G10  21877893.046    -7611896.0250       2278.274          46.000                                                                    21877891.842    -1566806.4540       1701.277          37.000  
G15  23328320.436     5612019.5750      -2693.769          34.000                                                                                                                                  
G18  21777505.434     5853005.8680      -3104.354          40.000                                                                                                                                  
G20  19975737.471    -2946450.9360        374.969          38.000                                                                                                                                  
G21  23054120.663    -3925974.8270        856.013          39.000                                                                                                                                  
G24  20692541.845     3478639.3360      -2119.263          38.000                                                                    20692547.534      498706.5270      -1582.570          38.000  
G32  23351692.542     -943586.0630       1690.599          38.000                                                                    23351695.247     -781756.6790       1262.465          45.000  
R06  21060874.968     2954245.6360      -1305.044          33.000                                                                                                                                  
R09  20070261.461    -9189155.7360       2025.925          32.000                                                                                                                                  
R16  21363080.160     3491163.9360      -2758.805          35.000                                                                                                                                  
R07  20648318.875    -2917248.9850        968.003          39.000                                                                                                                                  
C13  36327655.974     3665279.9620      -1492.295          35.000                                                                                                                                  
C16  36657198.938     1602753.4320       -454.337          38.000                                                                                                                                  
C19  23055408.558    -4769025.6220       1567.862          45.000                                                                                                                                  
C20  22440917.359      647740.0350       -482.295          35.000                                                                                                                                  
C29  25808145.193                       -2635.007          24.000                                                                                                                                  
C32  25517842.358     6155464.9380      -2295.051          30.000                                                                                                                                  
C35  26111468.891                       -1414.805          31.000                                                                                                                                  
C36  25908482.426                        3006.717          29.000                                                                                                                                  
C37  23227663.008     2229300.5380      -1538.488          36.000                                                                                                                                  
E08                                                                  23043787.411     -235108.2400        587.892          31.000                                                                  
E13                                                                  25739953.790      -13978.2610       -173.072          40.000                                                                  
E15                                                                  25163037.987      806849.0160      -1919.355          38.000                                                                  
> 2020 08 07 12 04 27.0000800  0 23
G10  21877460.438    -7614174.8840       2278.858          46.000                                                                    21877458.344    -1568508.2230       1701.769          37.000  
G15  23328841.168     5614713.5070      -2693.932          36.000                                                                                                                                  
G18  21778095.722     5856111.2630      -3105.395          40.000                                                                                                                                  
G20  19975668.228    -2946825.5220        374.586          39.000                                                                                                                                  
G21  23053959.964    -3926831.1770        856.350          39.000                                                                                                                                  
G24  20692948.662     3480758.9740      -2119.638          38.000                                                                    20692950.459      500289.3610      -1582.834          38.000  
G32  23351372.366     -945277.1060       1691.043          39.000                                                                    23351373.866     -783019.4510       1262.772          45.000  
R06  21061100.408     2955551.1170      -1305.481          34.000                                                                                                                                  
R09  20069880.418    -9191180.1720       2024.435          32.000                                                                                                                                  
R16  21363596.704     3493923.2820      -2759.346          35.000                                                                                                                                  
R07  20648135.107    -2918217.6260        968.641          39.000                                                                                                                                  
C13  36327944.984     3666772.7090      -1492.747          35.000                                                                                                                                  
C16  36657287.079     1603207.2290       -453.797          39.000                                                                                                                                  
C19  23055107.577    -4770594.3380       1568.716          45.000                                                                                                                                  
C20  22441011.503      648222.5370       -482.502          36.000                                                                                                                                  
C29  25808662.330                       -2635.160          22.000                                                                                                                                  
C32  25518282.453     6157760.6100      -2295.672          31.000                                                                                                                                  
C35  26111739.003                       -1415.519          34.000                                                                                                                                  
C36  25907905.016                        3003.815          27.000                                                                                                                                  
C37  23227959.208     2230839.6200      -1539.082          36.000                                                                                                                                  
E08                                                                  23043636.607     -235696.6240        588.384          31.000                                                                  
E13                                                                  25739998.759      -13805.3570       -172.904          40.000                                                                  
E15                                                                  25163527.239      808768.7990      -1919.783          38.000                                                                  
> 2020 08 07 12 04 28.0000800  0 23
G10  21877027.533    -7616454.4400       2279.556          46.000                                                                    21877024.549    -1570210.4720       1702.249          37.000  
G15  23329358.305     5617407.8640      -2694.357          36.000                                                                                                                                  
G18  21778687.511     5859217.7060      -3106.442          41.000                                                                                                                                  
G20  19975596.281    -2947199.7540        374.232          39.000                                                                                                                                  
G21  23053797.781    -3927687.9140        856.737          40.000                                                                                                                                  
G24  20693353.088     3482879.0660      -2120.092          39.000                                                                    20693355.479      501872.5340      -1583.173          38.000  
G32  23351053.096     -946968.7750       1691.669          39.000                                                                    23351052.189     -784282.7690       1263.319          45.000  
R06  21061351.045     2956856.9110      -1305.794          35.000                                                                                                                                  
R09  20069493.390    -9193203.0730       2022.902          32.000                                                                                                                                  
R16  21364117.436     3496682.9500      -2759.668          34.000                                                                                                                                  
R07  20647954.026    -2919187.0170        969.391          40.000                                                                                                                                  
C13  36328231.587     3668265.9900      -1493.281          35.000                                                                                                                                  
C16  36657375.220     1603660.4910       -453.262          39.000                                                                                                                                  
C19  23054807.172    -4772163.8540       1569.516          46.000                                                                                                                                  
C20  22441105.036      648705.3610       -482.824          37.000                                                                                                                                  
C29  25809167.775                       -2637.027          21.000                                                                                                                                  
C32  25518723.455     6160057.7430      -2297.133          33.000                                                                                                                                  
C35  26112010.319     2606345.2960      -1415.495          36.000                                                                                                                                  
C36  25907327.920                        3002.055          27.000                                                                                                                                  
C37  23228258.410     2232379.2750      -1539.654          36.000                                                                                                                                  
E08                                                                  23043485.226     -236285.6310        589.008          30.000                                                                  
E13                                                                  25740041.931      -13632.8220       -172.535          40.000                                                                  
E15                                                                  25164016.212      810688.8860      -1920.087          38.000                                                                  
> 2020 08 07 12 04 29.0000790  0 21
G10  21876291.554    -7619503.7230       2280.469          46.000                                                                    21876290.647    -1572487.5140       1702.927          37.000  
G15  23329565.774                       -2695.957          34.000                                                                                                                                  
G18  21778979.212     5861555.9770      -3107.083          41.000                                                                                                                                  
G20  19975227.229    -2948342.6730        374.105          39.000                                                                                                                                  
G21  23053333.992    -3929314.0700        857.342          40.000                                                                                                                                  
G24  20693455.907     3484230.6480      -2120.394          38.000                                                                    20693458.001      502881.8130      -1583.392          38.000  
G32  23350429.829                        1694.095          38.000                                                                    23350430.126                        1266.386          43.000  
R06  21061310.022     2957382.4760      -1306.251          34.000                                                                                                                                  
R09  20068826.392    -9196005.9730       2021.662          32.000                                                                                                                                  
R16  21364349.230     3498661.6150      -2760.173          36.000                                                                                                                                  
R07  20647482.209    -2920940.3870        970.213          40.000                                                                                                                                  
C13  36328218.397     3668997.4770      -1493.311          36.000                                                                                                                                  
C16  36657160.568     1603351.1180       -452.451          39.000                                                                                                                                  
C19  23054203.989    -4774496.2450       1570.566          46.000                                                                                                                                  
C20  22440895.775      648426.4170       -482.880          37.000                                                                                                                                  
C32  25518863.443     6161594.1170      -2298.198          32.000                                                                                                                                  
C35  26111986.641                       -1414.398          34.000                                                                                                                                  
C37  23228253.299     2233157.4900      -1540.039          35.000                                                                                                                                  
E08                                                                  23043036.129     -237449.5780        589.833          30.000                                                                  
E13                                                                  25739785.014      -14034.8430       -172.092          39.000                                                                  
E15                                                                  25164205.671      812035.0360      -1920.263          38.000                                                                  
> 2020 08 07 12 04 30.0000790  0 23
G10  21875860.447    -7621784.5380       2280.815          46.000                                                                    21875856.259    -1574190.7810       1703.267          36.000  
G15  23330086.209                       -2694.876          35.000                                                                                                                                  
G18  21779571.315     5864663.6870      -3107.710          41.000                                                                                                                                  
G20  19975154.374    -2948716.3140        373.641          40.000                                                                                                                                  
G21  23053170.919    -3930171.5940        857.524          40.000                                                                                                                                  
G24  20693859.130     3486351.5700      -2120.922          38.000                                                                    20693861.538      504465.6190      -1583.806          38.000  
G32  23350107.244                        1686.548          41.000                                                                    23350107.855     -787385.3310       1264.331          45.000  
R06  21061557.937     2958689.2990      -1306.824          34.000                                                                                                                                  
R09  20068452.260    -9198026.2900       2020.318          31.000                                                                                                                                  
R16  21364853.768     3501422.7460      -2761.131          35.000                                                                                                                                  
R07  20647303.833    -2921910.8060        970.418          40.000                                                                                                                                  
C13  36328505.296     3670491.0800      -1493.603          36.000                                                                                                                                  
C16  36657248.412     1603803.1810       -452.062          39.000                                                                                                                                  
C19  23053903.305    -4776067.3230       1571.079          45.000                                                                                                                                  
C20  22440989.623      648909.7350       -483.318          36.000                                                                                                                                  
C29  25809871.981                       -2627.486          24.000                                                                                                                                  
C32  25519305.352                       -2292.536          30.000                                                                                                                                  
C35  26112256.160     2608411.9130      -1413.928          36.000                                                                                                                                  
C36  25905873.620                        3002.014          29.000                                                                                                                                  
C37  23228544.700     2234698.3820      -1540.892          35.000                                                                                                                                  
E08                                                                  23042885.639     -238039.9290        590.351          31.000                                                                  
E13                                                                  25739829.372      -13862.8610       -171.982          40.000                                                                  
E15                                                                  25164696.441      813955.4330      -1920.397          37.000                                                                  
> 2020 08 07 12 04 31.0000790  0 23
G10  21875424.244    -7624064.2470       2279.709          45.000                                                                    21875423.354    -1575893.1320       1702.352          37.000  
G15  23330595.563     5624725.1980      -2696.637          37.000                                                                                                                                  
G18  21780162.197     5867773.6000      -3109.913          41.000                                                                                                                                  
G20  19975081.834    -2949087.9700        371.656          40.000                                                                                                                                  
G21  23053007.219    -3931027.7340        856.140          39.000                                                                                                                                  
G24  20694262.945     3488474.7510      -2123.180          37.000                                                                    20694265.650      506051.1110      -1585.493          38.000  
G32  23349786.178     -952814.8760       1692.893          39.000                                                                    23349785.270     -788649.0880       1263.757          45.000  
R06  21061801.979     2959998.4390      -1309.140          35.000                                                                                                                                  
R09  20068076.016    -9200043.8450       2017.555          31.000                                                                                                                                  
R16  21365384.115     3504186.1440      -2763.398          35.000                                                                                                                                  
R07  20647116.156    -2922880.0640        969.258          39.000                                                                                                                                  
C13  36328793.399     3671986.3580      -1495.277          36.000                                                                                                                                  
C16  36657334.145     1604256.3870       -453.206          39.000                                                                                                                                  
C19  23053601.119    -4777637.4050       1570.082          45.000                                                                                                                                  
C20  22441080.748      649394.8830       -485.148          35.000                                                                                                                                  
C32  25519745.132                       -2299.539          29.000                                                                                                                                  
C35  26112525.364     2609826.6990      -1414.785          38.000                                                                                                                                  
C36  25905295.320                        2999.400          28.000                                                                                                                                  
C37  23228843.902     2236241.5850      -1543.203          36.000                                                                                                                                  
E03                                                                  24307247.133                        -587.606          20.000                                                                  
E08                                                                  23042735.131     -238629.4390        589.510          31.000                                                                  
E13                                                                  25739874.045      -13689.9780       -172.883          39.000                                                                  
E15                                                                  25165183.895      815877.0310      -1921.599          38.000                                                                  
> 2020 08 07 12 04 32.0000790  0 23
G10  21874990.449    -7625537.6950       2280.056          45.000                                                                    21874988.948    -1576993.4490       1702.654          37.000  
G15  23331107.605     5628229.5480      -2697.745          37.000                                                                                                                                  
G18  21780755.783     5871690.9400      -3110.735          40.000                                                                                                                                  
G20  19975011.684    -2948652.4110        371.048          39.000                                                                                                                                  
G21  23052843.536    -3931077.5670        856.440          39.000                                                                                                                                  
G24  20694667.371     3491405.2140      -2123.858          38.000                                                                    20694670.076      508239.4440      -1585.997          39.000  
G32  23349463.000     -953701.1800       1692.911          38.000                                                                    23349463.297     -789310.9280       1264.177          45.000  
R06  21062057.746     2962127.3310      -1309.829          35.000                                                                                                                                  
R09  20067716.314    -9201240.2840       2016.079          30.000                                                                                                                                  
R16  21365904.306     3507770.3540      -2764.284          35.000                                                                                                                                  
R07  20646949.524    -2923027.9060        969.497          40.000                                                                                                                                  
C13  36329082.095     3674281.2220      -1495.591          36.000                                                                                                                                  
C16  36657421.082     1605508.4790       -452.819          39.000                                                                                                                                  
C19  23053300.731    -4778408.8320       1570.702          45.000                                                                                                                                  
C20  22441179.080      650679.9200       -485.763          36.000                                                                                                                                  
C29  25810885.280                       -2634.377          24.000                                                                                                                                  
C32  25520188.525     6169297.8500      -2302.954          31.000                                                                                                                                  
C35  26112799.071     2612040.6810      -1414.710          39.000                                                                                                                                  
C36  25904721.522                        2999.310          28.000                                                                                                                                  
C37  23229141.288     2238584.9110      -1544.052          37.000                                                                                                                                  
E08                                                                  23042585.233     -238617.1950        590.093          31.000                                                                  
E13                                                                  25739917.217                        -174.243          38.000                                                                  
E15                                                                  25165674.665      818401.2470      -1921.881          38.000                                                                  
> 2020 08 07 12 04 33.0000790  0 24
G10  21874557.247    -7627818.1790       2280.484          46.000                                                                    21874554.246    -1578696.4450       1702.995          37.000  
G15  23331617.849     5630927.6500      -2698.101          37.000                                                                                                                                  
G18  21781347.276     5874802.3460      -3111.406          40.000                                                                                                                                  
G20  19974943.331    -2949023.0090        370.597          39.000                                                                                                                                  
G21  23052680.760    -3931934.1480        856.581          39.000                                                                                                                                  
G24  20695073.298     3493529.7460      -2124.532          38.000                                                                    20695074.781      509825.8830      -1586.439          39.000  
G32  23349140.415     -955394.6050       1693.425          39.000                                                                    23349141.009     -790575.5680       1264.640          45.000  
R06  21062308.663     2963437.7480      -1310.418          35.000                                                                                                                                  
R09  20067328.379    -9203255.0540       2014.771          31.000                                                                                                                                  
R16  21366410.955     3510535.2610      -2764.907          35.000                                                                                                                                  
R07  20646771.148    -2923997.8640        969.958          40.000                                                                                                                                  
C13  36329367.197     3675777.1530      -1495.931          36.000                                                                                                                                  
C16  36657510.427     1605960.9610       -452.483          39.000                                                                                                                                  
C19  23052998.232    -4779980.0420       1571.210          45.000                                                                                                                                  
C20  22441269.018      651166.0390       -486.119          37.000                                                                                                                                  
C29  25811396.136                       -2639.684          26.000                                                                                                                                  
C32  25520631.621     6171601.4020      -2303.552          30.000                                                                                                                                  
C35  26113068.886     2613454.9450      -1414.263          40.000                                                                                                                                  
C36  25904147.428    -4466927.5470       2999.769          28.000                                                                                                                                  
C37  23229438.692     2240129.7160      -1544.806          37.000                                                                                                                                  
E03                                                                  24307545.131                        -589.787          22.000                                                                  
E08                                                                  23042434.743     -239207.8020        590.606          31.000                                                                  
E13                                                                  25739960.685      -12742.4480       -172.422          38.000                                                                  
E15                                                                  25166163.917      820323.2920      -1922.045          38.000                                                                  
> 2020 08 07 12 04 34.0000790  0 24
G10  21874121.655    -7630099.4170       2281.238          46.000                                                                    21874119.857    -1580399.9260       1703.481          36.000  
G15  23332134.393     5633625.8260      -2698.177          37.000                                                                                                                                  
G18  21781938.768     5877914.4990      -3112.153          40.000                                                                                                                                  
G20  19974873.181    -2949393.4330        370.425          39.000                                                                                                                                  
G21  23052518.857    -3932791.1740        857.026          39.000                                                                                                                                  
G24  20695477.707     3495654.3870      -2124.641          39.000                                                                    20695479.208      511412.5060      -1586.623          39.000  
G32  23348819.942     -957088.9130       1694.308          40.000                                                                    23348818.738     -791840.7930       1265.226          45.000  
R06  21062551.204     2964748.3890      -1310.641          35.000                                                                                                                                  
R09  20066956.637    -9205268.7060       2013.652          31.000                                                                                                                                  
R16  21366925.091     3513300.6000      -2765.339          35.000                                                                                                                                  
R07  20646587.973    -2924968.5800        970.716          39.000                                                                                                                                  
C13  36329652.595     3677273.2440      -1496.091          36.000                                                                                                                                  
C16  36657597.364     1606412.7070       -451.745          39.000                                                                                                                                  
C19  23052695.436    -4781552.2480       1572.205          45.000                                                                                                                                  
C20  22441364.052      651652.1530       -486.113          37.000                                                                                                                                  
C29  25811899.784                       -2638.436          27.000                                                                                                                                  
C32  25521076.217     6173906.0580      -2304.657          31.000                                                                                                                                  
C35  26113341.109     2614868.5920      -1413.647          40.000                                                                                                                                  
C36  25903570.018    -4469926.3540       2998.806          28.000                                                                                                                                  
C37  23229733.078     2241674.8900      -1545.174          37.000                                                                                                                                  
E03                                                                  24307694.417                        -585.396          23.000                                                                  
E08                                                                  23042283.345     -239799.0310        591.230          31.000                                                                  
E13                                                                  25740005.951      -12570.2290       -172.219          39.000                                                                  
E15                                                                  25166655.280      822245.4720      -1922.181          38.000                                                                  
> 2020 08 07 12 04 35.0000780  0 24
G10  21873389.865    -7633149.9490       2281.717          46.000                                                                    21873385.956    -1582677.8860       1703.846          36.000  
G15  23332353.535                       -2700.933          36.000                                                                                                                                  
G18  21782229.561     5880258.7950      -3113.108          40.000                                                                                                                                  
G20  19974501.738    -2950532.2250        369.978          39.000                                                                                                                                  
G21  23052055.381    -3934417.1270        857.139          39.000                                                                                                                                  
G24  20695579.339     3497010.7980      -2125.223          38.000                                                                    20695583.231      512425.4220      -1587.029          39.000  
G32  23348197.268     -959552.3540       1694.626          39.000                                                                    23348196.675     -793680.3430       1265.435          45.000  
R06  21062506.586     2965278.8960      -1311.193          34.000                                                                                                                                  
R09  20066286.952    -9208062.1810       2012.238          31.000                                                                                                                                  
R16  21367179.361     3515284.9150      -2765.824          35.000                                                                                                                                  
R07  20646114.044    -2926722.8980        971.160          39.000                                                                                                                                  
C13  36329642.110     3678007.9120      -1496.492          36.000                                                                                                                                  
C16  36657383.008     1606102.2120       -451.330          39.000                                                                                                                                  
C19  23052094.365    -4783886.7730       1572.700          45.000                                                                                                                                  
C20  22441154.809      651376.7920       -486.464          36.000                                                                                                                                  
C29  25812108.142                       -2636.363          27.000                                                                                                                                  
C32  25521218.020                       -2304.839          30.000                                                                                                                                  
C35  26113312.616     2615520.3780      -1413.609          41.000                                                                                                                                  
C36  25902694.926    -4473686.2330       2998.054          29.000                                                                                                                                  
C37  23229733.377     2242458.7670      -1545.701          38.000                                                                                                                                  
E03                                                                  24307542.428                        -585.452          23.000                                                                  
E08                                                                  23041833.061     -240964.8480        591.702          31.000                                                                  
E13                                                                  25739750.238      -12972.2130       -172.130          40.000                                                                  
E15                                                                  25166845.054      823594.0300      -1922.671          38.000                                                                  
> 2020 08 07 12 04 36.0000780  0 24
G10  21872953.661    -7635432.1520       2282.203          45.000                                                                    21872952.161    -1584382.1420       1704.255          36.000  
G15  23332863.483     5638255.2460      -2698.739          38.000                                                                                                                                  
G18  21782823.759     5883372.6790      -3113.884          40.000                                                                                                                                  
G20  19974431.274    -2950901.8570        369.632          39.000                                                                                                                                  
G21  23051892.902    -3935274.5230        857.396          39.000                                                                                                                                  
G24  20695986.156     3499136.3750      -2125.577          38.000                                                                    20695987.064      514012.7300      -1587.308          38.000  
G32  23347873.793     -961247.5630       1695.209          39.000                                                                    23347873.793     -794946.2510       1265.908          45.000  
R06  21062752.407     2966590.3700      -1311.474          35.000                                                                                                                                  
R09  20065913.709    -9210073.0600       2010.879          30.000                                                                                                                                  
R16  21367690.809     3518051.2830      -2766.368          36.000                                                                                                                                  
R07  20645931.463    -2927694.6560        971.758          39.000                                                                                                                                  
C13  36329928.398     3679504.7590      -1496.846          36.000                                                                                                                                  
C16  36657469.648     1606553.0410       -450.829          39.000                                                                                                                                  
C19  23051793.070    -4785460.2200       1573.448          45.000                                                                                                                                  
C20  22441248.342      651863.4030       -486.611          36.000                                                                                                                                  
C29  25812614.198     7665726.3680      -2637.996          31.000                                                                                                                                  
C32  25521660.505     6177757.5450      -2306.949          31.000                                                                                                                                  
C35  26113585.432     2616933.7140      -1413.337          41.000                                                                                                                                  
C36  25902116.626    -4476683.8250       2997.592          29.000                                                                                                                                  
C37  23230029.280     2244005.0320      -1546.265          38.000                                                                                                                                  
E03                                                                  24307694.123    -1117486.2590       -584.948          24.000                                                                  
E08                                                                  23041681.070     -241557.0450        592.197          30.000                                                                  
E13                                                                  25739792.799      -12800.3980       -171.815          39.000                                                                  
E15                                                                  25167334.305      825516.9120      -1922.882          38.000                                                                  
> 2020 08 07 12 04 37.0000780  0 24
G10  21872522.850    -7637714.7490       2282.597          46.000                                                                    21872518.366    -1586086.6900       1704.548          37.000  
G15  23333374.635     5640954.6500      -2699.404          37.000                                                                                                                                  
G18  21783415.548     5886487.3510      -3114.672          39.000                                                                                                                                  
G20  19974362.922    -2951270.8980        369.041          39.000                                                                                                                                  
G21  23051728.609    -3936132.1200        857.597          39.000                                                                                                                                  
G24  20696391.769     3501262.7530      -2126.378          38.000                                                                    20696392.677      515600.6250      -1587.895          39.000  
G32  23347548.521     -962943.4240       1695.862          39.000                                                                    23347550.912     -796212.6090       1266.358          45.000  
R06  21063006.936     2967902.7760      -1312.407          34.000                                                                                                                                  
R09  20065540.170    -9212082.5660       2009.506          31.000                                                                                                                                  
R16  21368204.648     3520818.5350      -2767.252          36.000                                                                                                                                  
R07  20645752.197    -2928666.6000        971.944          39.000                                                                                                                                  
C13  36330215.908     3681001.9110      -1497.152          36.000                                                                                                                                  
C16  36657555.695     1607003.5350       -450.493          39.000                                                                                                                                  
C19  23051490.570    -4787034.1750       1573.955          46.000                                                                                                                                  
C20  22441344.580      652350.6230       -487.220          37.000                                                                                                                                  
C29  25813120.534     7668364.4310      -2638.063          31.000                                                                                                                                  
C32  25522103.898     6180065.3140      -2307.769          31.000                                                                                                                                  
C35  26113855.544     2618346.5560      -1412.842          41.000                                                                                                                                  
C36  25901542.531    -4479680.7910       2996.966          29.000                                                                                                                                  
C37  23230323.369     2245552.3130      -1547.281          38.000                                                                                                                                  
E03                                                                  24307840.426                        -585.348          25.000                                                                  
E08                                                                  23041530.579     -242149.7680        592.724          31.000                                                                  
E13                                                                  25739836.267      -12628.6470       -171.751          39.000                                                                  
E15                                                                  25167825.075      827439.9720      -1923.059          37.000                                                                  
> 2020 08 07 12 04 38.0000780  0 24
G10  21872086.368    -7639191.3330       2283.192          45.000                                                                    21872083.960    -1587189.3450       1704.992          37.000  
G15  23333891.475     5644461.1310      -2699.876          36.000                                                                                                                                  
G18  21784009.134     5890409.2110      -3115.255          39.000                                                                                                                                  
G20  19974291.271    -2950833.0110        368.720          39.000                                                                                                                                  
G21  23051564.332    -3936183.5840        858.071          38.000                                                                                                                                  
G24  20696795.305     3504196.2570      -2126.899          38.000                                                                    20696797.399      517791.1750      -1588.214          40.000  
G32  23347229.235     -963833.4370       1696.620          39.000                                                                    23347228.641     -796877.2760       1267.004          46.000  
R06  21063259.109     2970034.7090      -1312.870          34.000                                                                                                                                  
R09  20065170.871    -9213271.0630       2008.137          30.000                                                                                                                                  
R16  21368727.544     3524406.5090      -2768.049          36.000                                                                                                                                  
R07  20645579.858    -2928817.4650        972.521          39.000                                                                                                                                  
C13  36330506.698     3683298.4600      -1497.276          36.000                                                                                                                                  
C16  36657641.428     1608252.7070       -449.899          40.000                                                                                                                                  
C19  23051188.682    -4787809.6960       1574.795          45.000                                                                                                                                  
C20  22441439.614      653637.4020       -487.505          37.000                                                                                                                                  
C29  25813628.387     7671801.2490      -2637.546          31.000                                                                                                                                  
C32  25522548.494     6183173.5320      -2308.945          31.000                                                                                                                                  
C35  26114126.860     2620557.8650      -1412.036          39.000                                                                                                                                  
C36  25900969.327    -4481878.2240       2996.709          30.000                                                                                                                                  
C37  23230623.756     2247899.4620      -1547.876          38.000                                                                                                                                  
E03                                                                  24307993.324    -1115713.6570       -585.085          25.000                                                                  
E08                                                                  23041378.571     -242140.6710        593.239          30.000                                                                  
E13                                                                  25739880.940      -11855.0720       -171.239          40.000                                                                  
E15                                                                  25168314.327      829965.4310      -1923.125          37.000                                                                  
> 2020 08 07 12 04 39.0000780  0 24
G10  21871649.258    -7641475.2280       2283.895          45.000                                                                    21871649.258    -1588894.8770       1705.532          37.000  
G15  23334400.830     5647161.2110      -2700.080          36.000                                                                                                                                  
G18  21784600.627     5893524.9390      -3115.728          39.000                                                                                                                                  
G20  19974220.825    -2951201.4730        368.462          39.000                                                                                                                                  
G21  23051401.539    -3937042.1170        858.532          38.000                                                                                                                                  
G24  20697200.622     3506323.5060      -2127.249          38.000                                                                    20697202.122      519379.7560      -1588.582          40.000  
G32  23346905.167     -965531.0330       1697.596          39.000                                                                    23346905.760     -798144.9530       1267.676          46.000  
R06  21063503.744     2971348.0810      -1313.372          35.000                                                                                                                                  
R09  20064800.926    -9215278.2050       2007.142          30.000                                                                                                                                  
R16  21369248.276     3527174.9910      -2768.482          35.000                                                                                                                                  
R07  20645394.589    -2929790.6180        973.153          39.000                                                                                                                                  
C13  36330792.707     3684795.7300      -1497.270          36.000                                                                                                                                  
C16  36657728.679     1608702.0100       -449.303          40.000                                                                                                                                  
C19  23050885.292    -4789385.3030       1575.607          45.000                                                                                                                                  
C20  22441530.145      654125.1250       -487.723          35.000                                                                                                                                  
C29  25814134.443                       -2637.232          33.000                                                                                                                                  
C32  25522990.997     6185483.2530      -2309.721          30.000                                                                                                                                  
C35  26114398.176     2621969.6020      -1411.737          40.000                                                                                                                                  
C36  25900394.324    -4484874.6590       2996.435          29.000                                                                                                                                  
C37  23230921.457     2249447.9070      -1548.445          39.000                                                                                                                                  
E03                                                                  24308141.721    -1115128.6780       -584.979          26.000                                                                  
E08                                                                  23041227.783     -242734.7440        594.073          31.000                                                                  
E13                                                                  25739924.705      -11684.0440       -171.029          40.000                                                                  
E15                                                                  25168804.486      831888.5120      -1923.080          37.000                                                                  
> 2020 08 07 12 04 40.0000780  0 24
G10  21871217.260    -7643759.4750       2284.247          45.000                                                                    21871213.666    -1590600.6230       1705.746          36.000  
G15  23334917.670     5649862.1330      -2700.922          35.000                                                                                                                                  
G18  21785196.622     5896641.5170      -3116.578          39.000                                                                                                                                  
G20  19974149.471    -2951569.2770        367.804          39.000                                                                                                                                  
G21  23051238.153    -3937900.8570        858.741          38.000                                                                                                                                  
G24  20697604.734     3508451.6150      -2128.109          39.000                                                                    20697607.142      520968.8840      -1589.128          40.000  
G32  23346580.488     -967229.1690       1698.137          39.000                                                                    23346581.989     -799413.0230       1268.070          45.000  
R06  21063752.863     2972662.2990      -1314.218          34.000                                                                                                                                  
R09  20064419.883    -9217283.7270       2005.522          30.000                                                                                                                                  
R16  21369766.617     3529944.5330      -2769.542          36.000                                                                                                                                  
R07  20645218.307    -2930764.0430        973.424          39.000                                                                                                                                  
C13  36331082.311     3686293.4140      -1497.684          36.000                                                                                                                                  
C16  36657814.412     1609151.0410       -449.031          39.000                                                                                                                                  
C19  23050582.513    -4790961.4090       1576.106          45.000                                                                                                                                  
C20  22441627.570      654613.4930       -488.368          37.000                                                                                                                                  
C29  25814642.594     7677075.6830      -2637.418          35.000                                                                                                                                  
C32  25523432.592                       -2311.071          28.000                                                                                                                                  
C35  26114669.178     2623380.8590      -1411.257          40.000                                                                                                                                  
C36  25899817.822    -4487870.6340       2995.976          30.000                                                                                                                                  
C37  23231217.361     2250997.2730      -1549.366          38.000                                                                                                                                  
E03                                                                  24308290.414                        -585.252          27.000                                                                  
E08                                                                  23041076.088     -243329.1280        594.384          31.000                                                                  
E13                                                                  25739967.580      -11513.2690       -170.774          39.000                                                                  
E15                                                                  25169295.256      833811.8880      -1923.376          37.000                                                                  
> 2020 08 07 12 04 41.0000770  0 24
G10  21870483.062    -7646812.9660       2284.677          45.000                                                                    21870478.577    -1592880.8810       1706.143          35.000  
G15  23335130.810                       -2698.103          36.000                                                                                                                                  
G18  21785490.416     5898990.1060      -3117.401          39.000                                                                                                                                  
G20  19973783.420    -2952705.3690        367.278          39.000                                                                                                                                  
G21  23050777.365    -3939528.6280        858.957          39.000                                                                                                                                  
G24  20697709.664     3509811.5570      -2128.754          38.000                                                                    20697712.369      521984.4100      -1589.639          40.000  
G32  23345960.519     -969696.8240       1698.840          39.000                                                                    23345958.721     -801255.7450       1268.607          45.000  
R06  21063637.676     2973196.4750      -1314.862          32.000                                                                                                                                  
R09  20063693.712                        2002.921          29.000                                                                                                                                  
R16  21369931.716     3531933.3820      -2770.357          36.000                                                                                                                                  
R07  20644675.904    -2932520.9750        973.775          38.000                                                                                                                                  
C13  36331068.807     3687029.5520      -1497.962          35.000                                                                                                                                  
C16  36657601.557     1608837.7940       -448.577          39.000                                                                                                                                  
C19  23049979.017    -4793300.0180       1576.784          44.000                                                                                                                                  
C20  22441420.717      654340.4460       -488.777          38.000                                                                                                                                  
C29  25814846.746     7678951.1700      -2637.310          35.000                                                                                                                                  
C32  25523577.990                       -2310.253          27.000                                                                                                                                  
C35  26114640.702     2624029.7110      -1410.676          39.000                                                                                                                                  
C36  25898941.526    -4491627.9780       2995.518          29.000                                                                                                                                  
C37  23231213.454     2251785.6430      -1550.194          39.000                                                                                                                                  
E03                                                                  24308138.722    -1114532.3860       -585.242          26.000                                                                  
E08                                                                  23040624.898     -244498.1570        594.915          31.000                                                                  
E13                                                                  25739710.960      -11916.8340       -170.549          39.000                                                                  
E15                                                                  25169484.715      835161.2210      -1923.447          37.000                                                                  
> 2020 08 07 12 04 42.0000770  0 24
G10  21870046.580    -7649097.8210       2284.855          45.000                                                                    21870045.672    -1594587.0560       1706.175          36.000  
G15  23335641.368     5654496.6670      -2702.019          36.000                                                                                                                                  
G18  21786084.299     5902107.9320      -3117.826          39.000                                                                                                                                  
G20  19973712.677    -2953072.1270        366.758          39.000                                                                                                                                  
G21  23050612.478    -3940387.6190        858.991          39.000                                                                                                                                  
G24  20698114.387     3511940.9970      -2129.440          38.000                                                                    20698117.685      523574.5930      -1590.183          40.000  
G32  23345634.339     -971396.1510       1699.327          39.000                                                                    23345635.840     -802524.7030       1268.958          46.000  
R06  21063876.901     2974511.9860      -1315.511          32.000                                                                                                                                  
R09  20063315.671    -9222071.9840       2002.975          29.000                                                                                                                                  
R16  21370448.277     3534704.6180      -2771.237          34.000                                                                                                                                  
R07  20644487.337    -2933494.8280        973.852          38.000                                                                                                                                  
C13  36331355.410     3688527.6970      -1498.145          35.000                                                                                                                                  
C16  36657686.696     1609286.1640       -448.371          39.000                                                                                                                                  
C19  23049678.036    -4794877.0020       1576.984          45.000                                                                                                                                  
C20  22441516.955      654829.7570       -489.310          38.000                                                                                                                                  
C29  25815356.101     7681588.1910      -2637.022          33.000                                                                                                                                  
C32  25524021.976     6191656.9170      -2312.937          29.000                                                                                                                                  
C35  26114911.110     2625440.0740      -1410.363          37.000                                                                                                                                  
C36  25898367.728    -4494623.4230       2995.445          29.000                                                                                                                                  
C37  23231515.046     2253336.7180      -1551.075          40.000                                                                                                                                  
E03                                                                  24308288.008    -1113947.0010       -585.384          27.000                                                                  
E08                                                                  23040472.906     -245093.4150        595.258          32.000                                                                  
E13                                                                  25739754.725      -11746.3710       -170.463          39.000                                                                  
E15                                                                  25169975.189      837084.8420      -1923.620          37.000                                                                  
> 2020 08 07 12 04 43.0000770  0 24
G10  21869612.767    -7651382.7620       2284.941          45.000                                                                    21869609.783    -1596293.3550       1706.299          36.000  
G15  23336159.709     5657198.9650      -2702.298          34.000                                                                                                                                  
G18  21786676.089     5905225.8160      -3117.884          39.000                                                                                                                                  
G20  19973643.731    -2953438.5600        366.433          40.000                                                                                                                                  
G21  23050449.702    -3941246.7110        859.092          39.000                                                                                                                                  
G24  20698520.907     3514070.9870      -2129.990          38.000                                                                    20698523.002      525165.1730      -1590.580          40.000  
G32  23345312.959     -973095.9440       1699.793          39.000                                                                    23345312.365     -803794.0700       1269.367          46.000  
R06  21064127.539     2975828.0280      -1316.043          31.000                                                                                                                                  
R09  20062936.442    -9224074.4010       2002.417          28.000                                                                                                                                  
R16  21370961.209     3537476.6370      -2772.019          33.000                                                                                                                                  
R07  20644308.368    -2934468.6810        973.853          38.000                                                                                                                                  
C13  36331643.513     3690025.6180      -1497.921          36.000                                                                                                                                  
C16  36657774.541     1609734.2880       -448.124          39.000                                                                                                                                  
C19  23049374.036    -4796454.3300       1577.328          45.000                                                                                                                                  
C20  22441608.098      655319.3060       -489.550          37.000                                                                                                                                  
C29  25815859.452                       -2633.773          30.000                                                                                                                                  
C32  25524464.164                       -2314.321          27.000                                                                                                                                  
C35  26115182.723     2626850.3330      -1410.259          38.000                                                                                                                                  
C36  25897790.318    -4497619.2660       2995.843          30.000                                                                                                                                  
C37  23231813.637     2254888.3810      -1551.664          40.000                                                                                                                                  
E03                                                                  24308438.813    -1113361.4940       -585.507          28.000                                                                  
E08                                                                  23040321.805     -245688.9810        595.566          31.000                                                                  
E13                                                                  25739798.193      -11575.8910       -170.480          40.000                                                                  
E15                                                                  25170465.348      839008.2500      -1923.408          37.000                                                                  
> 2020 08 07 12 04 44.0000770  0 24
G10  21869176.878    -7652860.7400       2284.586          45.000                                                                    21869175.674    -1597397.0690       1706.051          36.000  
G15  23336673.845                       -2701.731          31.000                                                                                                                                  
G18  21787267.878     5909150.4770      -3118.057          39.000                                                                                                                                  
G20  19973571.173    -2952997.4170        365.464          39.000                                                                                                                                  
G21  23050285.705    -3941298.6880        858.584          40.000                                                                                                                                  
G24  20698925.630     3517008.5820      -2130.990          38.000                                                                    20698928.928      527358.8060      -1591.299          41.000  
G32  23344987.687     -973989.3290       1699.993          38.000                                                                    23344988.298     -804461.1860       1269.453          45.000  
R06  21064384.493     2977964.0330      -1316.942          31.000                                                                                                                                  
R09  20062561.752    -9225256.2740       2001.514          29.000                                                                                                                                  
R16  21371478.992     3541069.9500      -2773.387          33.000                                                                                                                                  
R07  20644135.140    -2934620.4560        973.431          38.000                                                                                                                                  
C13  36331930.726     3692322.9540      -1498.062          36.000                                                                                                                                  
C16  36657857.883     1610981.8530       -448.292          39.000                                                                                                                                  
C19  23049071.554    -4797232.2190       1577.163          45.000                                                                                                                                  
C20  22441704.615      656608.8180       -490.239          38.000                                                                                                                                  
C29  25816366.398     7687659.9930      -2635.841          30.000                                                                                                                                  
C32  25524915.654                       -2314.188          26.000                                                                                                                                  
C35  26115453.445     2629059.8100      -1410.204          37.000                                                                                                                                  
C36  25897216.223    -4499815.9510       2995.960          30.000                                                                                                                                  
C37  23232110.744     2257240.3060      -1552.652          39.000                                                                                                                                  
E03                                                                  24308587.506    -1112173.2780       -585.881          29.000                                                                  
E08                                                                  23040169.517     -245682.1520        595.508          32.000                                                                  
E13                                                                  25739841.365      -10802.9030       -170.651          39.000                                                                  
E15                                                                  25170955.803      841533.9520      -1923.367          37.000                                                                  
> 2020 08 07 12 04 45.0000770  0 24
G10  21868741.583    -7655145.1040       2284.364          44.000                                                                    21868740.082    -1599102.8820       1705.813          36.000  
G15  23337193.687                       -2702.827          30.000                                                                                                                                  
G18  21787862.372     5912268.9090      -3118.432          39.000                                                                                                                                  
G20  19973501.023    -2953362.2210        364.804          39.000                                                                                                                                  
G21  23050122.615    -3942156.9300        858.241          40.000                                                                                                                                  
G24  20699334.541     3519140.5050      -2131.923          40.000                                                                    20699334.541      528950.8590      -1592.052          40.000  
G32  23344663.915     -975689.5050       1700.176          39.000                                                                    23344665.120     -805730.8480       1269.662          45.000  
R06  21064622.828     2979281.6970      -1317.664          33.000                                                                                                                                  
R09  20062191.493    -9227256.6320       2000.358          29.000                                                                                                                                  
R16  21372018.622     3543844.5470      -2774.597          34.000                                                                                                                                  
R07  20643960.952    -2935593.4710        973.015          37.000                                                                                                                                  
C13  36332217.625     3693821.0680      -1498.114          36.000                                                                                                                                  
C16  36657945.727     1611430.1960       -448.343          39.000                                                                                                                                  
C19  23048766.367    -4798809.2470       1577.029          44.000                                                                                                                                  
C20  22441797.258      657099.7320       -490.913          38.000                                                                                                                                  
C29  25816871.844                       -2637.057          29.000                                                                                                                                  
C32  25525361.454                       -2315.270          23.000                                                                                                                                  
C35  26115721.760                       -1410.469          35.000                                                                                                                                  
C36  25896640.628    -4502812.3120       2996.361          30.000                                                                                                                                  
C37  23232406.630     2258794.0450      -1553.739          39.000                                                                                                                                  
E03                                                                  24308737.107    -1111586.9560       -586.321          30.000                                                                  
E08                                                                  23040018.416     -246277.6100        595.458          33.000                                                                  
E13                                                                  25739885.148      -10632.0120       -170.891          39.000                                                                  
E15                                                                  25171445.963      843457.3630      -1923.411          37.000                                                                  
> 2020 08 07 12 04 46.0000770  0 24
G10  21868307.770    -7657429.3880       2284.284          44.000                                                                    21868305.083    -1600808.6990       1705.817          35.000  
G15  23337695.538     5666120.4500      -2704.042          33.000                                                                                                                                  
G18  21788455.365     5915387.6810      -3118.772          38.000                                                                                                                                  
G20  19973434.171    -2953726.4240        364.203          40.000                                                                                                                                  
G21  23049960.729    -3943015.0120        858.082          39.000                                                                                                                                  
G24  20699739.857     3521273.2450      -2132.740          39.000                                                                    20699740.451      530543.4920      -1592.633          41.000  
G32  23344342.238     -977389.9840       1700.479          38.000                                                                    23344341.645     -807000.7190       1269.870          45.000  
R06  21064882.453     2980600.1580      -1318.460          34.000                                                                                                                                  
R09  20061825.160    -9229256.0150       1999.383          28.000                                                                                                                                  
R16  21372535.166     3546620.2280      -2775.681          35.000                                                                                                                                  
R07  20643777.183    -2936566.4160        972.944          38.000                                                                                                                                  
C13  36332505.728     3695319.4420      -1498.374          36.000                                                                                                                                  
C16  36658031.757     1611878.5160       -448.320          39.000                                                                                                                                  
C19  23048465.368    -4800386.3940       1577.147          44.000                                                                                                                                  
C20  22441894.089      657591.1710       -491.439          39.000                                                                                                                                  
C29  25817377.900                       -2632.377          28.000                                                                                                                                  
C32  25525800.641                       -2314.137          23.000                                                                                                                                  
C35  26115997.264                       -1410.618          34.000                                                                                                                                  
C36  25896066.812    -4505808.6060       2996.295          29.000                                                                                                                                  
C37  23232706.721     2260348.5740      -1554.529          39.000                                                                                                                                  
E03                                                                  24308887.895    -1111000.4780       -586.479          31.000                                                                  
E08                                                                  23039866.721     -246873.3070        595.697          32.000                                                                  
E13                                                                  25739928.913      -10461.0760       -170.936          40.000                                                                  
E15                                                                  25171935.825      845380.8200      -1923.457          36.000                                                                  
> 2020 08 07 12 04 47.0000760  0 24
G10  21867573.886    -7660482.4110       2284.300          44.000                                                                    21867572.385    -1603088.4860       1705.742          35.000  
G15  23337914.698                       -2701.013          32.000                                                                                                                                  
G18  21788748.549     5917738.2000      -3119.239          38.000                                                                                                                                  
G20  19973063.932    -2954858.7340        363.588          39.000                                                                                                                                  
G21  23049496.661    -3944641.6860        857.952          40.000                                                                                                                                  
G24  20699846.882     3522637.9320      -2133.408          40.000                                                                    20699846.585      531562.5620      -1593.115          41.000  
G32  23343717.767     -979859.5920       1700.885          38.000                                                                    23343718.063     -808844.8480       1270.083          45.000  
R06  21064831.849     2981138.6780      -1319.113          33.000                                                                                                                                  
R09  20061152.491    -9232035.6010       1998.442          28.000                                                                                                                                  
R16  21372766.977     3548615.4370      -2776.625          34.000                                                                                                                                  
R07  20643305.070    -2938322.3670        972.887          39.000                                                                                                                                  
C13  36332493.131     3696056.0980      -1498.389          35.000                                                                                                                                  
C16  36657816.807     1611564.9410       -448.158          39.000                                                                                                                                  
C19  23047863.687    -4802725.3850       1577.257          44.000                                                                                                                                  
C20  22441683.031      657321.4680       -492.030          38.000                                                                                                                                  
C29  25817586.852                       -2629.010          25.000                                                                                                                                  
C32  25525949.337                       -2314.081          26.000                                                                                                                                  
C35  26115965.193     2632529.6290      -1409.662          38.000                                                                                                                                  
C36  25895185.421                        2997.322          27.000                                                                                                                                  
C37  23232705.520     2261142.1870      -1555.346          39.000                                                                                                                                  
E03                                                                  24308735.609    -1110987.8490       -586.673          30.000                                                                  
E08                                                                  23039414.344     -248043.3000        595.947          32.000                                                                  
E13                                                                  25739672.589      -10864.0570       -171.065          39.000                                                                  
E15                                                                  25172126.192      846730.2980      -1923.523          36.000                                                                  
> 2020 08 07 12 04 48.0000760  0 24
G10  21867138.590    -7662766.8930       2284.482          45.000                                                                    21867135.886    -1604794.4600       1705.973          35.000  
G15  23338431.224                       -2702.053          31.000                                                                                                                                  
G18  21789343.043     5920858.0370      -3119.836          38.000                                                                                                                                  
G20  19972995.876    -2955221.8430        363.109          38.000                                                                                                                                  
G21  23049332.663    -3945499.5530        857.868          39.000                                                                                                                                  
G24  20700251.605     3524771.8380      -2133.906          39.000                                                                    20700253.402      533156.0840      -1593.522          41.000  
G32  23343393.088     -981560.7650       1701.173          37.000                                                                    23343394.589     -810115.1770       1270.328          45.000  
R06  21065085.174     2982458.2480      -1319.570          32.000                                                                                                                                  
R09  20060782.250    -9234033.1130       1997.512          29.000                                                                                                                                  
R16  21373282.021     3551392.6300      -2777.194          34.000                                                                                                                                  
R07  20643129.084    -2939295.4990        973.132          38.000                                                                                                                                  
C13  36332780.030     3697554.8370      -1498.739          35.000                                                                                                                                  
C16  36657904.652     1612012.8260       -447.886          39.000                                                                                                                                  
C19  23047558.796    -4804303.0500       1577.665          44.000                                                                                                                                  
C20  22441783.771      657813.6040       -492.136          39.000                                                                                                                                  
C29  25818090.796                       -2632.856          27.000                                                                                                                                  
C32  25526390.636                       -2317.785          25.000                                                                                                                                  
C35  26116235.898     2633939.3460      -1409.718          39.000                                                                                                                                  
C36  25894613.421                        3000.584          24.000                                                                                                                                  
C37  23233001.720     2262698.0220      -1555.834          38.000                                                                                                                                  
E03                                                                  24308886.099    -1110401.1450       -586.705          30.000                                                                  
E08                                                                  23039264.743     -248639.4780        596.178          33.000                                                                  
E13                                                                  25739716.354      -10693.0020       -171.055          39.000                                                                  
E15                                                                  25172617.259      848654.0560      -1923.757          36.000                                                                  
> 2020 08 07 12 04 49.0000760  0 24
G10  21866702.981    -7665051.3010       2284.408          45.000                                                                    21866703.295    -1606500.3590       1705.899          36.000  
G15  23338947.768                       -2705.679          30.000                                                                                                                                  
G18  21789937.240     5923978.5430      -3120.506          38.000                                                                                                                                  
G20  19972925.430    -2955584.3050        362.462          38.000                                                                                                                                  
G21  23049169.888    -3946357.0720        857.518          41.000                                                                                                                                  
G24  20700656.031     3526906.3980      -2134.560          39.000                                                                    20700658.422      534750.0970      -1594.012          41.000  
G32  23343071.114     -983261.9450       1701.180          39.000                                                                    23343070.224     -811385.5120       1270.336          45.000  
R06  21065325.010     2983778.2400      -1319.992          31.000                                                                                                                                  
R09  20060412.899    -9236029.2930       1996.180          29.000                                                                                                                                  
R16  21373802.456                       -2781.026          32.000                                                                                                                                  
R07  20642945.910    -2940268.5820        973.083          38.000                                                                                                                                  
C13  36333067.837     3699053.8730      -1499.036          35.000                                                                                                                                  
C16  36657989.495     1612460.7070       -447.881          40.000                                                                                                                                  
C19  23047257.204    -4805880.8340       1577.784          44.000                                                                                                                                  
C20  22441875.210      658306.2570       -492.654          38.000                                                                                                                                  
C29  25818595.352                       -2636.626          28.000                                                                                                                                  
C32  25526841.235                       -2320.298          22.000                                                                                                                                  
C35  26116508.104                       -1409.336          36.000                                                                                                                                  
C36  25894039.623                        2994.612          27.000                                                                                                                                  
C37  23233303.905     2264254.5240      -1556.503          39.000                                                                                                                                  
E03                                                                  24309036.294    -1109814.4940       -586.650          30.000                                                                  
E08                                                                  23039111.251     -249235.6250        596.147          33.000                                                                  
E13                                                                  25739759.822      -10521.6680       -171.334          39.000                                                                  
E15                                                                  25173106.807      850578.0990      -1924.043          37.000                                                                  
> 2020 08 07 12 04 50.0000760  0 23
G10  21866268.593    -7666529.0060       2284.313          44.000                                                                    21866266.795    -1607603.8610       1705.839          37.000  
G15  23339462.217                       -2704.236          29.000                                                                                                                                  
G18  21790531.420     5927906.2900      -3121.142          38.000                                                                                                                                  
G20  19972855.873    -2955139.4520        361.753          38.000                                                                                                                                  
G21  23049008.892    -3946407.6680        857.203          41.000                                                                                                                                  
G24  20701065.239     3529848.3230      -2135.319          41.000                                                                    20701066.146      536946.9590      -1594.528          41.000  
G32  23342746.750     -984156.6850       1701.348          37.000                                                                    23342747.046     -812053.6760       1270.500          45.000  
R06  21065600.566                       -1323.458          30.000                                                                                                                                  
R09  20060043.303    -9237204.7420       1995.090          30.000                                                                                                                                  
R16  21374343.622                       -2779.010          32.000                                                                                                                                  
R07  20642770.291    -2940420.0080        973.082          37.000                                                                                                                                  
C13  36333355.625     3701352.5580      -1499.412          35.000                                                                                                                                  
C16  36658077.636     1613707.7620       -447.781          39.000                                                                                                                                  
C19  23046953.815    -4806659.2800       1577.720          44.000                                                                                                                                  
C20  22441968.447      659598.6280       -493.097          38.000                                                                                                                                  
C29  25819100.797                       -2636.273          29.000                                                                                                                                  
C35  26116779.420                       -1410.989          39.000                                                                                                                                  
C36  25893461.916    -4517754.5860       2995.405          27.000                                                                                                                                  
C37  23233603.403     2266611.1160      -1557.319          40.000                                                                                                                                  
E03                                                                  24309184.097    -1108625.1630       -586.996          30.000                                                                  
E08                                                                  23038959.556     -249229.7000        596.411          33.000                                                                  
E13                                                                  25739803.902       -9747.7760       -171.555          39.000                                                                  
E15                                                                  25173596.966      853104.7680      -1924.334          37.000                                                                  
> 2020 08 07 12 04 51.0000760  0 24
G10  21865836.281    -7668813.0060       2284.000          44.000                                                                    21865832.686    -1609309.4830       1705.622          37.000  
G15  23339974.556                       -2703.547          27.000                                                                                                                                  
G18  21791125.914     5931027.6520      -3121.362          37.000                                                                                                                                  
G20  19972789.318    -2955500.3590        360.908          39.000                                                                                                                                  
G21  23048844.912    -3947264.6220        856.954          41.000                                                                                                                                  
G24  20701472.055     3531984.7950      -2136.473          40.000                                                                    20701471.759      538542.4020      -1595.442          41.000  
G32  23342423.868     -985858.4040       1701.719          38.000                                                                    23342422.961     -813324.4800       1270.804          45.000  
R06  21065842.793     2987239.3790      -1321.732          33.000                                                                                                                                  
R09  20059679.658    -9239198.8030       1994.061          29.000                                                                                                                                  
R16  21374850.585     3560550.6910      -2780.290          34.000                                                                                                                                  
R07  20642593.101    -2941392.4960        972.487          38.000                                                                                                                                  
C13  36333645.229     3702852.0620      -1499.504          35.000                                                                                                                                  
C16  36658162.775     1614155.7530       -447.991          39.000                                                                                                                                  
C19  23046651.629    -4808236.9940       1577.714          44.000                                                                                                                                  
C20  22442066.779      660092.6520       -494.024          38.000                                                                                                                                  
C29  25819611.338                       -2632.533          29.000                                                                                                                                  
C32  25527725.612                       -2311.881          21.000                                                                                                                                  
C35  26117051.329                       -1417.877          36.000                                                                                                                                  
C36  25892888.415                        2993.511          27.000                                                                                                                                  
C37  23233898.696     2268169.7130      -1558.597          38.000                                                                                                                                  
E03                                                                  24309335.792    -1108037.6710       -587.492          31.000                                                                  
E08                                                                  23038806.954     -249826.1070        596.407          33.000                                                                  
E13                                                                  25739846.463       -9576.2130       -171.563          38.000                                                                  
E15                                                                  25174088.626      855028.9450      -1924.177          37.000                                                                  
> 2020 08 07 12 04 52.0000750  0 21
G10  21865100.303    -7671865.9420       2284.121          44.000                                                                    21865100.303    -1611589.3140       1705.716          36.000  
G15  23340189.807                       -2707.267          25.000                                                                                                                                  
G18  21791420.301     5933379.9870      -3121.147          37.000                                                                                                                                  
G20  19972418.765    -2956629.4580        360.285          38.000                                                                                                                                  
G21  23048380.826    -3948890.7610        857.325          42.000                                                                                                                                  
G24  20701578.487     3533353.7570      -2137.774          39.000                                                                    20701579.080      539564.5730      -1596.285          41.000  
G32  23341798.507     -988329.9000       1702.681          38.000                                                                    23341799.100     -815170.0840       1271.489          45.000  
R06  21065808.977                       -1315.032          31.000                                                                                                                                  
R09  20059010.567    -9241973.0140       1992.975          30.000                                                                                                                                  
R07  20642112.891    -2943147.7070        972.054          38.000                                                                                                                                  
C13  36333635.634     3703589.2810      -1499.042          36.000                                                                                                                                  
C16  36657948.716     1613841.7040       -447.775          39.000                                                                                                                                  
C19  23046048.744    -4810576.6990       1577.880          44.000                                                                                                                                  
C20  22441859.316      659825.8450       -495.017          38.000                                                                                                                                  
C29  25819816.713                       -2630.948          29.000                                                                                                                                  
C36  25892011.229                        2998.233          26.000                                                                                                                                  
C37  23233902.904                       -1558.713          36.000                                                                                                                                  
E03                                                                  24309185.600    -1108023.6980       -588.087          31.000                                                                  
E08                                                                  23038356.374     -250997.0010        596.780          34.000                                                                  
E13                                                                  25739592.250       -9979.0060       -171.321          39.000                                                                  
E15                                                                  25174277.806      856378.4380      -1923.605          37.000                                                                  
> 2020 08 07 12 04 53.0000750  0 23
G10  21864664.396    -7674150.3020       2284.360          43.000                                                                    21864664.099    -1613295.0610       1705.747          36.000  
G15  23340716.542                       -2698.899          22.000                                                                                                                                  
G18  21792012.998     5936501.5090      -3121.522          37.000                                                                                                                                  
G20  19972351.320    -2956989.0220        359.564          38.000                                                                                                                                  
G21  23048219.848    -3949748.4040        857.643          41.000                                                                                                                                  
G24  20701987.101     3535492.3720      -2138.615          40.000                                                                    20701985.897      541161.6620      -1597.089          41.000  
G32  23341473.531                        1702.370          36.000                                                                    23341474.718     -816442.3240       1272.241          44.000  
R06  21066054.205                       -1324.709          30.000                                                                                                                                  
R09  20058643.624    -9243964.7110       1991.697          29.000                                                                                                                                  
R07  20641935.405    -2944119.9150        972.207          38.000                                                                                                                                  
C13  36333923.144     3705088.3530      -1499.072          35.000                                                                                                                                  
C16  36658033.855     1614289.3810       -447.677          39.000                                                                                                                                  
C19  23045745.058    -4812155.0850       1578.386          44.000                                                                                                                                  
C20  22441954.943      660321.6020       -495.757          38.000                                                                                                                                  
C29  25820323.048                       -2630.585          24.000                                                                                                                                  
C32  25528316.811                       -2320.649          20.000                                                                                                                                  
C35  26117291.761                       -1406.530          28.000                                                                                                                                  
C36  25891437.728                        3000.281          27.000                                                                                                                                  
C37  23234199.383     2270529.3580      -1560.739          37.000                                                                                                                                  
E03                                                                  24309336.091    -1107435.2520       -588.446          31.000                                                                  
E08                                                                  23038203.179     -251594.2430        597.242          34.000                                                                  
E13                                                                  25739635.108       -9808.0070       -170.999          40.000                                                                  
E15                                                                  25174769.466      858301.8990      -1923.462          37.000                                                                  
> 2020 08 07 12 04 54.0000750  0 22
G10  21864230.898    -7676435.0840       2284.782          44.000                                                                    21864228.804    -1615001.2160       1706.156          36.000  
G18  21792606.585     5939623.6770      -3122.168          36.000                                                                                                                                  
G20  19972282.671    -2957347.9870        358.964          38.000                                                                                                                                  
G21  23048054.961    -3950606.3570        857.954          42.000                                                                                                                                  
G24  20702393.325     3537632.0250      -2139.653          39.000                                                                    20702393.325      542759.4000      -1597.738          42.000  
G32  23341151.540                        1704.004          37.000                                                                    23341150.353     -817715.1060       1272.781          44.000  
R06  21066292.540                       -1330.339          29.000                                                                                                                                  
R09  20058264.989    -9245954.8750       1990.164          31.000                                                                                                                                  
R16  21376132.533                       -2784.702          32.000                                                                                                                                  
R07  20641761.531    -2945092.3670        972.452          38.000                                                                                                                                  
C13  36334207.338     3706587.6980      -1499.345          36.000                                                                                                                                  
C16  36658119.902     1614736.5720       -447.191          39.000                                                                                                                                  
C19  23045442.558    -4813734.0320       1578.947          44.000                                                                                                                                  
C20  22442051.477      660817.9480       -496.346          39.000                                                                                                                                  
C32  25528767.986                       -2327.703          17.000                                                                                                                                  
C35  26117563.984                       -1409.220          27.000                                                                                                                                  
C36  25890862.725                        2996.876          23.000                                                                                                                                  
C37  23234500.678     2272091.4750      -1562.117          39.000                                                                                                                                  
E03                                                                  24309485.081    -1106846.6500       -588.601          31.000                                                                  
E08                                                                  23038051.187     -252192.0020        597.759          34.000                                                                  
E13                                                                  25739678.891       -9637.4070       -170.601          39.000                                                                  
E15                                                                  25175258.421      860225.4250      -1923.526          38.000                                                                  
> 2020 08 07 12 04 55.0000750  0 22
G10  21863796.196    -7677913.8660       2285.390          43.000                                                                    21863795.602    -1616105.5460       1706.666          36.000  
G18  21793200.171     5943553.1070      -3122.825          35.000                                                                                                                                  
G20  19972216.709    -2956899.8920        358.512          38.000                                                                                                                                  
G21  23047893.075    -3950658.3270        858.576          41.000                                                                                                                                  
G24  20702798.344     3540579.0150      -2140.385          39.000                                                                    20702800.438      544960.0430      -1598.308          42.000  
G32  23340828.380     -992636.9580       1706.044          37.000                                                                    23340826.268     -818386.3200       1273.551          44.000  
R06  21066553.106                       -1328.048          29.000                                                                                                                                  
R09  20057902.269    -9247123.8160       1988.581          31.000                                                                                                                                  
R16  21376667.714                       -2786.678          29.000                                                                                                                                  
R07  20641587.692    -2945243.5400        972.829          38.000                                                                                                                                  
C13  36334496.034     3708886.3940      -1499.424          35.000                                                                                                                                  
C16  36658206.543     1615982.6140       -446.768          39.000                                                                                                                                  
C19  23045139.780    -4814514.5330       1579.776          43.000                                                                                                                                  
C20  22442145.325      662114.2020       -496.981          39.000                                                                                                                                  
C32  25529224.274                       -2327.552          16.000                                                                                                                                  
C35  26117831.688                       -1408.481          27.000                                                                                                                                  
C36  25890287.724                        2991.370          20.000                                                                                                                                  
C37  23234801.380     2274454.2480      -1563.500          38.000                                                                                                                                  
E03                                                                  24309636.182    -1105655.3550       -588.960          32.000                                                                  
E08                                                                  23037899.178     -252188.1490        598.484          34.000                                                                  
E13                                                                  25739722.045       -8864.8480       -170.223          39.000                                                                  
E15                                                                  25175749.191      862751.3060      -1923.546          38.000                                                                  
> 2020 08 07 12 04 56.0000750  0 23
G10  21863359.696    -7680199.8330       2285.966          43.000                                                                    21863358.806    -1617812.5530       1707.007          36.000  
G18  21793797.963     5946676.6650      -3123.558          36.000                                                                                                                                  
G20  19972145.669    -2957257.7500        357.858          38.000                                                                                                                                  
G21  23047728.188    -3951517.3850        859.058          41.000                                                                                                                                  
G24  20703207.552     3542720.2200      -2141.205          39.000                                                                    20703208.162      546559.0170      -1598.973          41.000  
G32  23340505.202                        1704.571          36.000                                                                    23340501.589     -819660.6640       1274.344          44.000  
R06  21066822.625                       -1325.696          26.000                                                                                                                                  
R09  20057530.230    -9249110.7910       1986.976          31.000                                                                                                                                  
R16  21377195.653                       -2785.419          27.000                                                                                                                                  
R07  20641401.236    -2946216.8080        973.268          37.000                                                                                                                                  
C13  36334785.935     3710386.2160      -1499.822          36.000                                                                                                                                  
C16  36658291.682     1616428.9470       -446.333          39.000                                                                                                                                  
C19  23044834.890    -4816094.9760       1580.443          43.000                                                                                                                                  
C20  22442241.842      662611.8670       -497.665          38.000                                                                                                                                  
C29  25821836.697                       -2625.543          24.000                                                                                                                                  
C32  25529669.761                       -2334.131          17.000                                                                                                                                  
C35  26118103.597                       -1408.830          28.000                                                                                                                                  
C36  25889711.517                        2991.909          21.000                                                                                                                                  
C37  23235099.360                       -1565.865          36.000                                                                                                                                  
E03                                                                  24309785.468    -1105066.3310       -589.023          33.000                                                                  
E08                                                                  23037746.890     -252787.2470        599.097          35.000                                                                  
E13                                                                  25739765.217       -8695.0950       -169.753          39.000                                                                  
E15                                                                  25176239.350      864674.9390      -1923.633          38.000                                                                  
> 2020 08 07 12 04 57.0000750  0 24
G10  21862924.400    -7682486.1360       2286.303          43.000                                                                    21862923.807    -1619519.9500       1707.397          35.000  
G15  23342782.124                       -2686.466          19.000                                                                                                                                  
G18  21794389.752     5949800.9080      -3124.243          36.000                                                                                                                                  
G20  19972079.114    -2957615.1240        357.374          38.000                                                                                                                                  
G21  23047564.191    -3952376.7910        859.406          42.000                                                                                                                                  
G24  20703613.479     3544862.2930      -2142.073          39.000                                                                    20703615.573      548158.6930      -1599.676          42.000  
G32  23340179.912                        1705.320          34.000                                                                    23340176.317     -820935.5530       1274.889          44.000  
R06  21067067.853                       -1325.188          27.000                                                                                                                                  
R09  20057158.785    -9251096.2720       1985.481          31.000                                                                                                                                  
R16  21377707.991                       -2787.258          30.000                                                                                                                                  
R07  20641224.954    -2947190.2340        973.427          38.000                                                                                                                                  
C13  36335074.335     3711886.0450      -1499.829          36.000                                                                                                                                  
C16  36658377.119     1616874.8880       -445.941          39.000                                                                                                                                  
C19  23044532.093    -4817676.0260       1581.051          43.000                                                                                                                                  
C20  22442337.486      663110.1930       -498.326          38.000                                                                                                                                  
C29  25822341.253                       -2629.952          25.000                                                                                                                                  
C32  25530104.760                       -2331.954          14.000                                                                                                                                  
C35  26118373.116                       -1404.727          33.000                                                                                                                                  
C36  25889135.311                        2998.990          19.000                                                                                                                                  
C37  23235401.563     2277584.0790      -1564.962          39.000                                                                                                                                  
E03                                                                  24309935.366    -1104477.0890       -589.242          33.000                                                                  
E08                                                                  23037592.805     -253386.8660        599.620          34.000                                                                  
E13                                                                  25739808.685       -8525.6260       -169.469          39.000                                                                  
E15                                                                  25176729.509      866598.6210      -1923.682          37.000                                                                  
> 2020 08 07 12 04 58.0000740  0 23
G10  21862188.719    -7685541.7730       2286.823          43.000                                                                    21862190.219    -1621801.7470       1707.682          35.000  
G18  21794686.845     5952156.8710      -3124.775          35.000                                                                                                                                  
G20  19971711.266    -2958740.7740        356.836          38.000                                                                                                                                  
G21  23047102.216    -3954005.3660        859.761          41.000                                                                                                                                  
G24  20703722.301     3546236.2620      -2142.781          39.000                                                                    20703723.505      549184.5850      -1600.005          42.000  
G32  23339550.659                        1711.738          33.000                                                                    23339551.863     -822784.7230       1275.055          42.000  
R06  21066994.442     2995784.9470      -1328.849          33.000                                                                                                                                  
R09  20056502.292    -9253861.8240       1984.315          32.000                                                                                                                                  
R16  21377938.284     3579324.4930      -2788.345          35.000                                                                                                                                  
R07  20640753.731    -2948947.2960        973.904          38.000                                                                                                                                  
C13  36335062.349     3712624.3520      -1500.130          36.000                                                                                                                                  
C16  36658162.780     1616558.6080       -445.544          39.000                                                                                                                                  
C19  23043928.318    -4820019.5640       1581.713          43.000                                                                                                                                  
C20  22442132.728      662847.1080       -498.740          38.000                                                                                                                                  
C29  25822550.518                       -2630.533          24.000                                                                                                                                  
C32  25530242.375                       -2327.328          15.000                                                                                                                                  
C35  26118342.231                       -1406.720          37.000                                                                                                                                  
C36  25888263.221                        2999.162          24.000                                                                                                                                  
C37  23235403.049     2278388.4680      -1566.213          39.000                                                                                                                                  
E03                                                                  24309786.082    -1104461.8610       -589.341          34.000                                                                  
E08                                                                  23037141.318     -254561.0040        600.024          35.000                                                                  
E13                                                                  25739551.175       -8930.5330       -169.207          38.000                                                                  
E15                                                                  25176921.080      867948.2770      -1923.769          38.000                                                                  
> 2020 08 07 12 04 59.0000740  0 23
G10  21861757.611    -7687828.8850       2287.112          43.000                                                                    21861753.109    -1623509.6750       1707.928          35.000  
G18  21795280.431                       -3127.059          35.000                                                                                                                                  
G20  19971643.210    -2959097.0850        356.311          38.000                                                                                                                                  
G21  23046937.329    -3954865.0740        859.708          42.000                                                                                                                                  
G24  20704130.322     3548379.4690      -2143.207          38.000                                                                    20704131.526      550785.0470      -1600.462          41.000  
G32                                                                                                                                  23339226.277                        1274.376          43.000  
R06  21067269.353     2997114.3000      -1329.353          34.000                                                                                                                                  
R09  20056135.942    -9255844.6460       1982.822          32.000                                                                                                                                  
R16  21378464.112                       -2788.657          34.000                                                                                                                                  
R07  20640569.352    -2949921.4200        974.124          37.000                                                                                                                                  
C13  36335350.155     3714124.9140      -1500.562          36.000                                                                                                                                  
C16  36658247.623     1617003.9500       -445.342          39.000                                                                                                                                  
C19  23043624.929    -4821601.6940       1582.131          43.000                                                                                                                                  
C20  22442230.152      663346.1600       -499.052          38.000                                                                                                                                  
C29  25823053.259                       -2632.181          27.000                                                                                                                                  
C32  25530708.243                       -2326.914          19.000                                                                                                                                  
C35  26118610.249                       -1406.704          34.000                                                                                                                                  
C36  25887686.718                        2995.362          23.000                                                                                                                                  
C37  23235702.250     2279955.3340      -1566.866          39.000                                                                                                                                  
E03                                                                  24309937.480    -1103872.5610       -589.300          34.000                                                                  
E08                                                                  23036987.215     -255161.5650        600.561          35.000                                                                  
E13                                                                  25739594.643       -8761.4450       -169.088          39.000                                                                  
E15                                                                  25177410.629      869872.3680      -1924.091          38.000                                                                  
> 2020 08 07 12 05  0.0000740  0 22
G10  21861319.610    -7690116.3020       2287.418          43.000                                                                    21861318.110    -1625217.7510       1708.077          35.000  
G18  21795871.017     5958410.2320      -3126.575          35.000                                                                                                                                  
G20  19971576.061    -2959452.8770        355.792          38.000                                                                                                                                  
G21  23046772.442    -3955724.7210        859.647          42.000                                                                                                                                  
G24  20704537.139     3550523.1120      -2143.642          38.000                                                                    20704538.936      552385.8850      -1600.838          42.000  
G32                                                                                                                                  23338901.913     -825336.8340       1275.932          44.000  
R06  21067513.987     2998443.8800      -1329.580          34.000                                                                                                                                  
R09  20055764.200    -9257826.3360       1981.690          31.000                                                                                                                                  
R16  21378985.454     3584903.1790      -2789.614          35.000                                                                                                                                  
R07  20640393.069    -2950895.9020        974.482          38.000                                                                                                                                  
C13  36335638.852     3715625.8630      -1500.949          35.000                                                                                                                                  
C16  36658334.246     1617448.9050       -444.955          39.000                                                                                                                                  
C19  23043318.538    -4823184.2700       1582.576          43.000                                                                                                                                  
C20  22442326.094      663845.5910       -499.431          38.000                                                                                                                                  
C29  25823556.907                       -2633.179          35.000                                                                                                                                  
C35  26118879.174                       -1402.606          37.000                                                                                                                                  
C36  25887111.716                        2991.588          26.000                                                                                                                                  
C37  23236004.139     2281522.6730      -1567.339          39.000                                                                                                                                  
E03                                                                  24310086.470    -1103283.2870       -589.274          34.000                                                                  
E08                                                                  23036834.316     -255762.3170        600.751          34.000                                                                  
E13                                                                  25739637.518       -8592.2760       -169.169          38.000                                                                  
E15                                                                  25177900.788      871796.8970      -1924.529          37.000                                                                  
> 2020 08 07 12 05  1.0000740  0 23
G10  21860886.409    -7691596.2800       2286.585          43.000                                                                    21860883.425    -1626322.9910       1707.577          35.000  
G18  21796471.216     5962343.9730      -3127.136          35.000                                                                                                                                  
G20  19971508.006    -2959001.1790        354.909          38.000                                                                                                                                  
G21  23046610.556    -3955776.6560        858.542          42.000                                                                                                                                  
G24  20704945.159     3553474.0640      -2144.347          39.000                                                                    20704947.253      554589.5020      -1601.282          42.000  
G32  23338575.733                        1704.262          37.000                                                                    23338576.327     -826009.8430       1275.347          44.000  
R06  21067697.982     3000592.6510      -1329.708          34.000                                                                                                                                  
R09  20055325.223    -9258987.7090       1981.013          30.000                                                                                                                                  
R16  21379445.267     3588513.1910      -2790.086          36.000                                                                                                                                  
R07  20640145.364    -2951048.2140        973.967          37.000                                                                                                                                  
C13  36335926.658     3717926.6900      -1501.553          35.000                                                                                                                                  
C16  36658418.792     1618693.5260       -445.347          39.000                                                                                                                                  
C19  23043016.649    -4823966.9380       1581.943          43.000                                                                                                                                  
C20  22442421.721      665144.4910       -499.627          40.000                                                                                                                                  
C29  25824063.557                       -2629.114          35.000                                                                                                                                  
C32  25531589.043                       -2326.383          20.000                                                                                                                                  
C35  26119150.176                       -1404.541          36.000                                                                                                                                  
C36  25886539.419                        2992.810          27.000                                                                                                                                  
C37  23236305.731     2283889.7010      -1567.755          40.000                                                                                                                                  
E03                                                                  24310235.460    -1102091.5650       -589.386          33.000                                                                  
E08                                                                  23036681.121     -255760.3180        600.337          35.000                                                                  
E13                                                                  25739682.784       -7819.8580       -170.082          38.000                                                                  
E15                                                                  25178392.744      874324.2300      -1924.998          37.000                                                                  
> 2020 08 07 12 05  2.0000740  0 23
G10  21860448.723    -7693882.6910       2286.411          43.000                                                                    21860447.815    -1628030.3850       1707.394          35.000  
G15  23345051.544                       -2707.406          33.000                                                                                                                                  
G18  21797064.192     5965471.4950      -3127.522          35.000                                                                                                                                  
G20  19971439.950    -2959355.5110        354.332          38.000                                                                                                                                  
G21  23046447.467    -3956634.7110        858.056          42.000                                                                                                                                  
G24  20705352.273     3555619.0440      -2144.979          38.000                                                                    20705354.681      556191.2670      -1601.765          41.000  
G32  23338250.165                        1711.563          37.000                                                                    23338251.055     -827285.2010       1275.357          44.000  
R06  21067950.714     3001922.8720      -1330.221          34.000                                                                                                                                  
R09  20054957.686    -9260967.9860       1980.278          30.000                                                                                                                                  
R16  21379960.904     3591304.3390      -2791.148          36.000                                                                                                                                  
R07  20639965.487    -2952022.0780        973.865          37.000                                                                                                                                  
C13  36336216.855     3719428.3360      -1501.646          35.000                                                                                                                                  
C16  36658505.729     1619138.9080       -445.382          39.000                                                                                                                                  
C19  23042712.945    -4825548.8020       1581.863          44.000                                                                                                                                  
C20  22442518.256      665644.5530       -500.061          39.000                                                                                                                                  
C29  25824565.722                       -2625.761          32.000                                                                                                                                  
C35  26119421.492                       -1406.780          34.000                                                                                                                                  
C36  25885963.213                        2993.675          27.000                                                                                                                                  
C37  23236607.026     2285458.1260      -1568.425          39.000                                                                                                                                  
E03                                                                  24310387.154    -1101501.9110       -589.654          33.000                                                                  
E08                                                                  23036527.332     -256360.6470        600.330          35.000                                                                  
E13                                                                  25739724.159       -7649.5230       -170.335          38.000                                                                  
E15                                                                  25178881.717      876249.2780      -1925.049          37.000                                                                  
> 2020 08 07 12 05  3.0000740  0 22
G10  21860011.316    -7696169.3780       2286.687          43.000                                                                    21860013.427    -1629737.9870       1707.602          36.000  
G15  23345563.900                       -2707.896          31.000                                                                                                                                  
G18  21797661.984     5968599.7040      -3128.209          35.000                                                                                                                                  
G20  19971374.895    -2959709.3060        353.795          37.000                                                                                                                                  
G21  23046285.284    -3957492.8210        858.109          42.000                                                                                                                                  
G24  20705761.795     3557764.5000      -2145.456          37.000                                                                    20705763.592      557793.4070      -1602.140          40.000  
G32  23337929.377                        1709.122          37.000                                                                    23337926.376     -828560.9740       1275.773          44.000  
R06  21068198.332                       -1327.921          33.000                                                                                                                                  
R09  20054585.037    -9262947.0020       1979.016          31.000                                                                                                                                  
R16  21380494.235                       -2791.829          35.000                                                                                                                                  
R07  20639783.813    -2952996.1720        974.093          38.000                                                                                                                                  
C13  36336504.051     3720930.1940      -1501.858          35.000                                                                                                                                  
C16  36658590.869     1619583.9650       -445.057          39.000                                                                                                                                  
C19  23042409.870    -4827131.1470       1582.346          43.000                                                                                                                                  
C20  22442613.289                        -500.264          39.000                                                                                                                                  
C35  26119689.807                       -1404.495          35.000                                                                                                                                  
C36  25885386.117                        2991.497          27.000                                                                                                                                  
C37  23236908.619     2287027.1910      -1569.065          40.000                                                                                                                                  
E03                                                                  24310536.162    -1100912.3910       -589.520          33.000                                                                  
E08                                                                  23036376.248     -256961.3540        600.707          34.000                                                                  
E13                                                                  25739767.627       -7479.3210       -170.202          38.000                                                                  
E15                                                                  25179372.469      878174.5890      -1925.310          37.000                                                                  
> 2020 08 07 12 05  4.0000730  0 24
G10  21859280.119    -7699224.6920       2286.500          43.000                                                                    21859278.635    -1632019.5180       1707.416          36.000  
G15  23345783.636                       -2714.625          31.000                                                                                                                                  
G18  21797953.074     5970959.5620      -3128.670          35.000                                                                                                                                  
G20  19971005.250    -2960831.3030        353.183          38.000                                                                                                                                  
G21  23045819.697    -3959119.3400        857.705          42.000                                                                                                                                  
G24  20705870.913     3559141.6800      -2145.993          38.000                                                                    20705872.414      558821.8850      -1602.591          41.000  
G32  23337301.608                        1708.811          36.000                                                                    23337301.608     -830410.8060       1275.717          44.000  
R06  21068150.713     3003803.3040      -1330.676          33.000                                                                                                                                  
R09  20053915.945    -9265706.4570       1978.218          31.000                                                                                                                                  
R16  21380730.513     3596107.4060      -2792.403          36.000                                                                                                                                  
R07  20639305.103    -2954753.1700        973.841          37.000                                                                                                                                  
C13  36336489.657     3721670.6300      -1502.260          35.000                                                                                                                                  
C16  36658376.530     1619267.2510       -445.109          39.000                                                                                                                                  
C19  23041805.484    -4829475.2460       1582.274          43.000                                                                                                                                  
C20  22442408.531      665883.9300       -500.763          40.000                                                                                                                                  
C29  25825280.118                       -2634.812          31.000                                                                                                                                  
C32  25532647.314                       -2325.238          19.000                                                                                                                                  
C35  26119660.126                       -1408.213          33.000                                                                                                                                  
C36  25884514.917                        2991.043          27.000                                                                                                                                  
C37  23236910.122     2287835.0450      -1569.678          39.000                                                                                                                                  
E03                                                                  24310387.453    -1100896.7530       -589.751          34.000                                                                  
E08                                                                  23035922.946     -258136.2040        600.736          35.000                                                                  
E13                                                                  25739511.303                        -169.930          38.000                                                                  
E15                                                                  25179563.447      879526.0390      -1925.564          37.000                                                                  
> 2020 08 07 12 05  5.0000730  0 23
G10  21858847.824    -7701511.2770       2286.584          43.000                                                                    21858842.432    -1633727.0290       1707.510          35.000  
G15  23346303.478                       -2714.542          32.000                                                                                                                                  
G18  21798553.274     5974088.6840      -3129.122          35.000                                                                                                                                  
G20  19970939.305    -2961183.8530        352.550          37.000                                                                                                                                  
G21  23045658.108    -3959976.8610        857.521          42.000                                                                                                                                  
G24  20706278.027     3561288.5980      -2146.918          38.000                                                                    20706280.732      560425.0030      -1603.117          41.000  
G32  23336974.835                        1710.228          36.000                                                                    23336976.039     -831686.7990       1275.993          44.000  
R06  21068404.335     3005134.9750      -1331.671          34.000                                                                                                                                  
R09  20053544.518    -9267683.6790       1977.222          31.000                                                                                                                                  
R16  21381243.759     3598900.7290      -2793.323          35.000                                                                                                                                  
R07  20639132.119    -2955727.1180        973.948          38.000                                                                                                                                  
C13  36336781.669     3723173.0270      -1502.397          35.000                                                                                                                                  
C16  36658460.465     1619712.1660       -444.915          39.000                                                                                                                                  
C19  23041501.798    -4831057.7950       1582.549          43.000                                                                                                                                  
C20  22442507.160      666385.2160       -501.286          39.000                                                                                                                                  
C29  25825785.878                       -2633.140          29.000                                                                                                                                  
C35  26119932.943     2657986.6670      -1405.364          33.000                                                                                                                                  
C36  25883936.617                        2993.838          27.000                                                                                                                                  
C37  23237211.103     2289405.4020      -1570.357          39.000                                                                                                                                  
E03                                                                  24310537.351    -1100306.9140       -589.840          34.000                                                                  
E08                                                                  23035769.454     -258737.1360        600.932          35.000                                                                  
E13                                                                  25739555.365       -7712.1960       -170.608          39.000                                                                  
E15                                                                  25180053.903      881451.6080      -1925.569          37.000                                                                  
> 2020 08 07 12 05  6.0000730  0 24
G10  21858405.932    -7703798.2460       2286.969          42.000                                                                    21858407.433    -1635434.8690       1707.840          34.000  
G15  23346820.632                       -2713.262          33.000                                                                                                                                  
G18  21799147.158     5977218.7630      -3130.078          35.000                                                                                                                                  
G20  19970872.750    -2961535.7120        351.859          38.000                                                                                                                                  
G21  23045493.221    -3960834.8160        857.956          42.000                                                                                                                                  
G24  20706688.142     3563436.3610      -2147.763          39.000                                                                    20706689.049      562028.9010      -1603.898          41.000  
G32  23336648.673                        1711.116          34.000                                                                    23336650.470     -832963.3710       1276.572          44.000  
R06  21068643.280     3006467.7440      -1332.769          34.000                                                                                                                                  
R09  20053179.058    -9269658.9340       1975.255          32.000                                                                                                                                  
R16  21381763.008     3601695.2030      -2794.474          35.000                                                                                                                                  
R07  20638943.849    -2956701.3080        974.191          38.000                                                                                                                                  
C13  36337069.458     3724675.7810      -1502.754          35.000                                                                                                                                  
C16  36658547.106     1620156.7930       -444.627          39.000                                                                                                                                  
C19  23041197.204    -4832640.8740       1583.079          43.000                                                                                                                                  
C20  22442602.508      666887.3170       -502.101          39.000                                                                                                                                  
C29  25826291.917                       -2629.965          27.000                                                                                                                                  
C32  25533531.987                       -2335.458          22.000                                                                                                                                  
C35  26120198.553                       -1402.038          32.000                                                                                                                                  
C36  25883363.708                        2993.000          26.000                                                                                                                                  
C37  23237514.493     2290977.0630      -1571.661          39.000                                                                                                                                  
E03                                                                  24310689.359    -1099716.6730       -590.241          35.000                                                                  
E08                                                                  23035616.869     -259338.6130        601.477          35.000                                                                  
E13                                                                  25739599.741       -7541.9800       -170.216          40.000                                                                  
E15                                                                  25180544.969      883377.4670      -1925.859          38.000                                                                  
> 2020 08 07 12 05  7.0000730  0 23
G10  21857974.528    -7705279.3540       2287.716          42.000                                                                    21857972.138    -1636540.8200       1708.288          36.000  
G15  23347332.377                       -2714.385          32.000                                                                                                                                  
G18  21799744.339     5981156.2160      -3130.849          35.000                                                                                                                                  
G20  19970804.398    -2961080.4370        351.332          38.000                                                                                                                                  
G21  23045331.335    -3960886.7840        858.574          42.000                                                                                                                                  
G24  20707096.459     3566391.5330      -2148.566          39.000                                                                    20707100.072      564235.7070      -1604.471          41.000  
G32  23336323.994                        1710.565          33.000                                                                    23336325.181     -833638.4500       1277.415          44.000  
R06  21068910.443     3008620.6050      -1333.799          34.000                                                                                                                                  
R09  20052819.967    -9270812.9870       1973.693          31.000                                                                                                                                  
R16  21382300.876                       -2796.465          35.000                                                                                                                                  
R07  20638772.418    -2956854.3170        974.665          37.000                                                                                                                                  
C13  36337356.671     3726978.0990      -1503.045          35.000                                                                                                                                  
C16  36658631.652     1621400.1940       -444.128          38.000                                                                                                                                  
C19  23040893.815    -4833425.5440       1583.944          43.000                                                                                                                                  
C20  22442698.728      668189.2600       -502.669          40.000                                                                                                                                  
C29  25826801.864                       -2630.955          27.000                                                                                                                                  
C32  25533984.681                       -2336.754          22.000                                                                                                                                  
C36  25882792.598                        2989.930          25.000                                                                                                                                  
C37  23237814.287     2293348.9050      -1572.569          39.000                                                                                                                                  
E03                                                                  24310840.740    -1098524.0490       -590.289          35.000                                                                  
E08                                                                  23035462.173     -259338.4470        602.171          35.000                                                                  
E13                                                                  25739641.412       -6769.8680       -169.776          40.000                                                                  
E15                                                                  25181035.425      885905.6980      -1925.896          38.000                                                                  
